"Search Parameters"	"Year"	"Mo"	"Dy"	"Hr"	"Mn"	"Sec"	"Tsunami Event Validity"	"Tsunami Cause Code"	"Tsu Src"	"Earthquake Magnitude"	"Vol"	"More Info"	"Doubtful Runup"	"Country"	"Area"	"Location Name"	"Latitude"	"Longitude"	"Distance From Source (km)"	"Initial Wave Arrival Dy"	"Initial Wave Arrival Hr"	"Initial Wave Arrival Min"	"Travel Hours"	"Travel Minutes"	"Max Wave Arrival Day"	"Max Wave Arrival Hr"	"Max Wave Arrival Min"	"Max Water Height (m)"	"Max Inundation Distance (m)"	"Measurement Type"	"Period"	"First Motion"	"Deaths"	"Death Description"	"Missing"	"Missing Description"	"Injuries"	"Injuries Description"	"Damage $Mil"	"Damage Description"	"Houses Destroyed"	"Houses Destroyed Description"	"Houses Damaged"	"Houses Damaged Description"
"[""Country = JAPAN""]"																																												
	684	11	29				4	1	53	8.4			"n"	"JAPAN"	"MIE"	"ATASHIKA"	33.917	136.15	254.7009991563298									3		1														
	684	11	29				4	1	53	8.4			"n"	"JAPAN"	"KOCHI"	"TOSA"	33.51	133.44	123.63412893231218											1														
	701	5	12				4	1	54	7			"n"	"JAPAN"	"KYOTO"	"TANGO, KYOTO"	35.87	135.08	34.53634909503185											1														
	704	8	2				4	1	55	7			"n"	"JAPAN"		"KUMAMONADA"														1														
	744	6	30				4	1	57	6.4			"n"	"JAPAN"	"KUMAMOTO"	"KUMAMOTO"	32.83	130.7	51.24757842607474											1			1520	4						3	470	3		
	745	6	9				3	1	58	6.5			"n"	"JAPAN"	"OSAKA"	"OSAKA BAY"	34.5	135.33	11.429870283392235											1				3										
	766	7	20				4	6	61	6.5	844		"n"	"JAPAN"	"KAGOSHIMA"	"OSUMI ISLAND"	30	130	189.61280109657278											1				3										
	799	9	18				2	0	63				"n"	"JAPAN"	"IBARAKI"	"HITACHI"	36.58	140.67										2		1														
	799	9	18				2	0	63				"n"	"JAPAN"	"IBARAKI"	"NAKAMINATO"	36.333	140.59												1														
	799	9	18				2	0	63				"n"	"JAPAN"	"IBARAKI"	"KUJI"	40.1878	141.7689												1														
	799	9	18				2	0	63				"n"	"JAPAN"	"IBARAKI"	"KASHIMA"	35.933	140.69												1														
	818	8					4	3	66	7.9			"n"	"JAPAN"	"CHIBA"	"BOSO PENINSULA"	34.9	139.85	60.21233748135817											1				3										
	850	11	27				4	3	69	7			"n"	"JAPAN"	"AKITA"	"KISAGATA"	39.2167	139.9	24.057503030534672										4000	1										2				
	855	6					-1	0	70				"n"	"JAPAN"	"KAGOSHIMA"	"KUMANO"	30.68	130.967												1														
	863	7	10				4	3	72	7			"n"	"JAPAN"	"NIIGATA"	"NAOETSUKO"	37.1	138	0											1														
	869	7	13				4	1	74	8.6			"n"	"JAPAN"	"FUKUSHIMA"	"IWAKI"	37.07	140.9	300.72378516998765											1														
	869	7	13				4	1	74	8.6			"n"	"JAPAN"	"MIYAGI"	"SENDAI"	38.267	141.033	243.13139693547646											1			1000	3						3		3		
	869	7	13				4	1	74	8.6			"n"	"JAPAN"	"MIYAGI"	"SHIOGAMA"	38.3	141	245.58485412497976											1										1				
	869	7	13				4	1	74	8.6			"n"	"JAPAN"	"IWATE"	"RIKUCHU"	39.74	142	207.7942232761604											1														
	869	7	13				4	1	74	8.6			"n"	"JAPAN"	"WAKAYAMA"	"IWASHIRO"	33.783	135.283	927.530333381531											1														
	887	8	2				3	1	76	6.5			"n"	"JAPAN"	"NIIGATA"	"S. COAST NIIGATA PREFECTURE"	37.92	139.05	95.86480307412461									4		1			2000	4										
	887	8	26				4	1	77	8.6			"n"	"JAPAN"	"KANAGAWA"	"HIYUGA"	35.3	139.65	475.3404832722031											1										2				
	887	8	26				4	1	77	8.6			"n"	"JAPAN"	"OSAKA"	"OSAKA BAY"	34.5	135.33	166.40006992242587											1				2						2				
	922						4	1	79	7			"n"	"JAPAN"	"MIE"	"KUMAMONADA"	33.8	136.7	0									2		1														
	1026	6	16				3	1	83	7.5			"n"	"JAPAN"	"SHIMANE"	"IWAMI COAST"	34.88	132.43	58.302615185299665									10		1			1000	3										
	1026	6	16				3	1	83	7.5			"n"	"JAPAN"	"YAMAGUCHI"	"SUSA"	34.6167	131.6	27.37134376711466									10		1														
	1088	6	10				4	1	93	7			"n"	"JAPAN"	"IWATE"	"SANRIKU COAST"	39.33	142	155.51711593085685									2		1														
	1096	12	17				4	1	96	8.4			"n"	"JAPAN"	"YAMAGATA"	"ATSUMI"	34.62	137.11	77.5804873427869									7		1														
	1096	12	17				4	1	96	8.4			"n"	"JAPAN"	"MIE"	"MIE"	34.69	136.54	116.87710413011844											1														
	1096	12	17				4	1	96	8.4			"n"	"JAPAN"	"SHIZUOKA"	"SHIZUOKA"	34.98	138.4	136.57099176562537											1														
	1096	12	17				4	1	96	8.4			"n"	"JAPAN"	"MIE"	"TSU"	34.717	136.517	120.4301250817772									5		1														
	1096	12	17				4	1	96	8.4			"n"	"JAPAN"		"SURUGA BAY"	34.7	138.2	100.88178380200077											1										3			400	3
	1099	2	22				4	1	2992	8.4			"n"	"JAPAN"	"WAKAYAMA"	"NANKAIDO COAST"	33	135.5	0											1														
	1241	5	22				4	1	104	7			"n"	"JAPAN"	"KANAGAWA"	"KAMAKURA"	35.309	139.55	18.236848692539752											1														
	1241	5	22				4	1	104	7			"n"	"JAPAN"	"KANAGAWA"	"YUIGAHAMA"	35.283	139.567	17.77191972910002											1										1				
	1257	10	9				4	1	105	7.5			"n"	"JAPAN"	"IWATE"	"SANRIKU COAST"	39	141.7	199.23543041501918											1														
	1257	10	9				4	1	106	7			"n"	"JAPAN"	"KANAGAWA"	"SAGAMI BAY"	35.2	139.5	0											1														
	1257	10	9				4	1	106	7			"n"	"JAPAN"	"IWATE"	"NODA"	40.11	141.82	582.0829756427985											1														
	1257	10	9				4	1	106	7			"n"	"JAPAN"	"IWATE"	"KUJI"	40.195	141.79	589.9767495808595											1														
	1293	5	27				-1	1	110	7.1			"n"	"JAPAN"	"KANAGAWA"	"KAMAKURA"	35.309	139.55	18.236848692539752											1														
	1341	10	31				3	1	116	7			"n"	"JAPAN"	"AOMORI"	"JUSAN-MINATO"	41.033	140.333	70.1626361157376											1			2600	4										
	1360	11	22				4	1	122	7			"n"	"JAPAN"	"OSAKA"	"OSAKA BAY"	34.667	135.433	157.378216185687											1				3										
	1360	11	22				4	1	122	7			"n"	"JAPAN"		"OWASE"	34.083	136.2	75.75681011321903											1				3										
	1360	11	22				4	1	122	7			"n"	"JAPAN"		"WAKAYAMA"	34.2	135.2	128.25134546803042											1														
	1361	8	3				4	1	124	8.4			"n"	"JAPAN"	"TOKUSHIMA"	"AWA"	34.06	134.6	123.3000660902813											1			60	2										
	1361	8	3				4	1	124	8.4			"n"	"JAPAN"	"OSAKA"	"NAMBAURA, OSAKA"	34.7	135.5	194.15729062005965											1			600	3										
	1361	8	3				4	1	124	8.4			"n"	"JAPAN"	"OSAKA"	"NANIWA, OSAKA"	34.65	135.5	188.7783518672849											1			200	3						2				
	1361	8	3				4	1	124	8.4			"n"	"JAPAN"	"TOKUSHIMA"	"NARUTO, TOKUSHIMA"	34.183	134.617	135.9431779307534											1														
	1361	8	3				4	1	124	8.4			"n"	"JAPAN"	"TOKUSHIMA"	"YUKI PORT, TOKUSHIMA"	33.767	134.6	92.85426550013767											1			200	3						4	1700	4		
	1361	8	3				4	1	124	8.4			"n"	"JAPAN"	"OSAKA"	"SETTSU"	34.7782	135.5951	204.77541301597734											1														
	1403	12					4	1	128	7			"n"	"JAPAN"	"KANAGAWA"	"KAMAKURA"	35.31	139.54	331.3900213732556											1														
	1403	12					4	1	128	7			"n"	"JAPAN"	"WAKAYAMA"	"SOUTH COAST OF KII PENINSULA"	33.5	135.8	68.65331509345513											1														
	1408	1	21				4	1	131	7			"n"	"JAPAN"	"KANAGAWA"	"KAMAKURA"	35.31	139.54	294.5433441825485											1														
	1408	1	21				4	1	131	7			"n"	"JAPAN"	"WAKAYAMA"	"SOUTH COAST OF KII PENINSULA"	33.5	135.8	107.32588361523739											1														
	1420	9	6	21			3	0	132				"n"	"JAPAN"	"IBARAKI"	"KAWARAGO AISE, HITACHI"	36.54	140.64												1														
	1420	9	6	21			3	0	132				"n"	"JAPAN"	"IBARAKI"	"AIGA, HITACHI"	36.58	140.66												1														
	1433	11	7				4	1	133	7.1			"n"	"JAPAN"	"KANTO"	"TONE RIVER"	35.75	140.8	151.21034992904498											1														
	1448	9	19				3	1	136	7			"n"	"JAPAN"	"TOYAMA"	"TOYAMA BAY-NIIGATA"	36.7	137.23	123.76359069885635											1														
	1495	9	12				4	1	142	7.1			"n"	"JAPAN"	"KANAGAWA"	"KAMAKURA"	35.309	139.55	23.63014611509855									5		1														
	1495	9	12				4	1	142	7.1			"n"	"JAPAN"	"KANAGAWA"	"YUIGAHAMA"	35.283	139.567	21.199928936995533											1			200	3										
	1498	7	9				2	1	144	6.4			"n"	"JAPAN"	"MIE"	"ISE"	34.48	136.71	91.41805479598662											1														
	1498	7	9				2	1	144	6.4			"n"	"JAPAN"	"KANAGAWA"	"KAMAKURA"	35.309	139.55	196.95004823968614											1														
	1498	7	9				2	1	144	6.4			"n"	"JAPAN"		"KII PENINSULA"														1														
	1498	9	20				4	1	146	8.3			"n"	"JAPAN"	"TOKYO"	"YAENE, HACHIJO ISLAND"	33.1	139.767	184.20080584914632											1			1	1										
	1498	9	20				4	1	146	8.3			"n"	"JAPAN"	"MIE"	"OMINATO (ISE)"	34.517	136.75	136.926982718586									10		1			5000	4						4	1000	3		
	1498	9	20				4	1	146	8.3			"n"	"JAPAN"	"SHIZUOKA"	"YAIZU"	34.867	138.333	98.53189611058171											1			26000	4										
	1498	9	20				4	1	146	8.3			"n"	"JAPAN"	"SHIZUOKA"	"LAKE HAMANA"	34.683	137.6	88.6384255327165											1														
	1498	9	20				4	1	146	8.3			"n"	"JAPAN"	"KANAGAWA"	"KAMAKURA"	35.309	139.55	196.85740992737428											1			200	3										
	1498	9	20				4	1	2993	7.5			"n"	"JAPAN"	"WAKAYAMA"	"MINATO"	34.0903	135.09	66.2629719983344											1										1				
	1498	9	20				4	1	146	8.3			"n"	"JAPAN"	"SHIZUOKA"	"NISHINA COUNTY"	34.7667	138.7667	104.84648923367428										2000	1														
	1510	9	21				4	1	154	6.7			"n"	"JAPAN"	"OSAKA"	"NANIWA (OSAKA)"	34.7	135.5	14.391220807033571											1														
	1510	10	10				-1	9	156				"y"	"JAPAN"	"SHIZUOKA"	"TOTOMI-NADA"	34.6	138.2	56.177146021258594											1														
	1512	10					1	0	158				"y"	"JAPAN"	"TOKUSHIMA"	"SHIKOKU ISLAND"	34.067	134.567												1			3700	4										
	1520	4	4				4	1	160	7			"n"	"JAPAN"	"WAKAYAMA"	"SOUTH COAST OF KII PENINSULA"	33.5	135.8	47.74077009090973											1										1		2		
	1545	2	7				2	1	171				"n"	"JAPAN"		"IZU PENINSULA, HONSHU"	34.8	139	0											1														
	1562	7	25				1	0	176				"n"	"JAPAN"		"YATSUSHIRO"	32.517	130.567	3.629038507867573											1														
	1562	7	25				1	0	176				"n"	"JAPAN"		"HIGO"	32.5	130.6	0											1														
	1571	5	20				2	0	181				"y"	"JAPAN"	"WAKAYAMA"	"TAKADA"	37.12	138.24												1														
	1585	6	11				1	0	188				"n"	"JAPAN"	"MIYAGI"	"TOKURA VILLAGE, MOTOYOSHI COUNTY"	38.8	141.5										2		1														
	1586	1	18				4	1	191	8.2			"n"	"JAPAN"	"MIE"	"NAGASHIMA"	35.083	136.7	12.963053518146062											1				3						2				
	1586	1	18				4	1	191	8.2			"n"	"JAPAN"	"AICHI"	"TSUSHIMA"	35.167	136.717	20.013867501524636											1				3						2				
	1586	1	18				4	1	191	8.2			"n"	"JAPAN"	"MIE"	"OMINATO (ISE)"	34.517	136.75	53.77735840084845											1				3						2				
	1586	1	18				4	1	191	8.2			"n"	"JAPAN"	"SHIGA"	"NAGAHAMA"	35.383	136.267	64.51299556975239											1				3						2				
	1586	7	10	0	30		4	1	194	8.5			"y"	"JAPAN"	"MIYAGI"	"MIYAGI (NE HONSHU)"	38.45	141.6	15177.247682316447									2		1														
	1586	7	10	0	30		4	1	194	8.5			"y"	"JAPAN"	"MIYAGI"	"SHIZUKAWA"	38.72	141.45	15175.523199987292									2.5		1														
	1586	7	10	0	30		4	1	194	8.5			"y"	"JAPAN"	"MIYAGI"	"TOKURA SANRIKU (MIYAGI PREFECTURE)"												2.5		1														
	1589	3	21				4	1	197	6.7			"n"	"JAPAN"	"AICHI"	"MIKAWA"	34.7	137.13	98.60006643623902											1				3						3		3		3
	1589	3	21				4	1	197	6.7			"n"	"JAPAN"	"SHIZUOKA"	"SURUGA-WAN"	34.83	138.58	34.9263059181257											1				3						3		3		
	1589	3	21				4	1	197	6.7			"n"	"JAPAN"	"SHIZUOKA"	"TOTOMI"	34.967	138.383	24.962188910216216											1				3						3		3		
	1596	9	4				4	3	203	6.9			"n"	"JAPAN"	"OITA"	"URYU-JIMA ISLAND, BEPPU BAY"	33.3	131.5	18.627130091777516									5		1			708	3						3		3		
	1596	9	4				4	3	203	6.9			"n"	"JAPAN"	"OITA"	"SAGANOSEKI"	33.2411	131.8722	17.322333306477									8		1										1	80	1		
	1596	9	4				4	3	203	6.9			"n"	"JAPAN"	"OITA"	"OITA"	33.24	131.61	10.704794975541446									4	1500	1										1				
	1596	9	4				4	3	203	6.9			"n"	"JAPAN"	"OITA"	"NATA (NADA)"	33.42	131.7	13.309305645176796									8		1														
	1596	9	4				4	3	203	6.9			"n"	"JAPAN"	"OITA"	"USUKI"	33.12	131.8	22.033174241613487									4		1														
	1596	9	4				4	3	203	6.9			"n"	"JAPAN"	"OITA"	"UWAURA"	33.2	131.86	18.582837421880388									4		1														
	1597	9	10				3	3	204	6.4			"n"	"JAPAN"	"OITA"	"HISAMITSUJIMA ISLAND, BEPPU BAY"	33.3	131.5	9.313566114850092											1			40	1										
	1602	2	8				4	3	207	7.2			"n"	"JAPAN"	"CHIBA"	"KAZUSA, AWA"	35.1	140.4	9.117696618334346											1				3										
	1602	2	8				4	3	207	7.2			"n"	"JAPAN"	"CHIBA"	"BOSO PENINSULA"	34.9	139.85	63.34988217832654											1														
	1603						2	0	209				"n"	"JAPAN"	"MIE"	"KUMANONADA SEA"	33.7	136.5										2		1														
	1605	2	3				4	1	216	7.9			"n"	"JAPAN"	"KOCHI"	"KANNOURA"	33.533	134.3	81.36088984976075									6		1			350	3										
	1605	2	3				4	1	216	7.9			"n"	"JAPAN"	"TOKUSHIMA"	"AWA"	34.06	134.6	120.8260839154159									7		1														
	1605	2	3				4	1	216	7.9			"n"	"JAPAN"	"KANAGAWA"	"HIRO"	34.0333	135.1833	117.59033549453012											1										2	700	3		
	1605	2	3				4	1	2954	7.9			"n"	"JAPAN"	"TOKYO"	"HACHIJO ISLAND"	33.1	139.77	126.32717724093162											1			57	2						2		3		
	1605	2	3				4	1	216	7.9			"n"	"JAPAN"	"KOCHI"	"SAKIHAMA"	33.3833	134.2167	76.59725867240003									10		1			50	1										
	1605	2	3				4	1	216	7.9			"n"	"JAPAN"	"KOCHI"	"CAPE MUROTO"	33.2833	134.15	76.7075464740539									10		1			400	3										
	1605	2	3				4	1	216	7.9			"n"	"JAPAN"	"TOKUSHIMA"	"SHISHIKUI"	33.567	134.317	83.08995572953769									6		1			136	3										
	1605	2	3				4	1	2954	7.9			"n"	"JAPAN"	"KANAGAWA"	"MIURA"	35.14	139.6192	209.05610135339595											1			153	3										
	1605	2	3				4	1	2954	7.9			"n"	"JAPAN"	"SHIZUOKA"	"ARAI"	34.6833	137.5667	156.99029567004715											1										1	80	2		
	1605	2	3				4	1	2954	7.9			"n"	"JAPAN"	"MIE"	"ISE-SHIMA"	34.455	136.9	181.88078210074778											1			1001	4										
	1605	2	3				4	1	2954	7.9			"n"	"JAPAN"	"CHIBA"	"BOSO"	34.9	139.85	198.98956647310544											1										1				
	1605	2	3				4	1	216	7.9			"n"	"JAPAN"	"KUMAMOTO"	"KYUSHU ISLAND"	33	131	364.4466597528437											1				1										
	1605	2	3				4	1	2954	7.9			"n"	"JAPAN"	"SHIZUOKA"	"NISHINA VILLAGE"	34.7667	138.7667	142.6455440123171										1200	1														
	1605	2	3				4	1	2954	7.9			"n"	"JAPAN"	"MIE"	"ISE BAY"	34.75	136.75	212.8003301909346											1														
	1605	2	3				4	1	216	7.9			"n"	"JAPAN"	"WAKAYAMA"	"MISAKI"	33.433	135.75	92.65644537264438											1			153	3										
	1605	2	3				4	1	216	7.9			"n"	"JAPAN"	"TOKUSHIMA"	"TOMOURA"	33.5833	134.3667	81.56416393618555									5		1			100	2										
	1605	2	3				4	1	216	7.9			"n"	"JAPAN"		"SUSAKI"	33.367	133.283	156.19486115504333											1			20	1										
	1606	1	23				4	6	219		2589		"n"	"JAPAN"	"TOKYO"	"HACHIJO ISLAND"	33.1	139.77	134.81854804106007											1														
	1611	12	2				4	1	226	8.1			"n"	"JAPAN"	"HOKKAIDO"	"DATE DOMINION"	42.4681	140.8681	492.28156975043424											1			1783	4										
	1611	12	2				4	1	226	8.1			"n"	"JAPAN"	"AOMORI"	"TSUGORU PENINSULA"	40.83	140.73	380.97569770069725											1			3000	4										
	1611	12	2				4	1	226	8.1			"n"	"JAPAN"	"IWATE"	"TARO"	39.76	141.97	233.73689802135786									25	1200	1														
	1611	12	2				4	1	226	8.1			"n"	"JAPAN"	"IWATE"	"YAMADA"	39.467	141.95	226.18271429261546									25		1														
	1611	12	2				4	1	226	8.1			"n"	"JAPAN"	"MIYAGI"	"IWANUMA"	38.13	140.87	330.7543561513342									7	4000	1				1										
	1611	12	2				4	1	226	8.1			"n"	"JAPAN"	"MIYAGI"	"SENDAI"	38.267	141.033	312.62785621304795											1														
	1611	12	2				4	1	226	8.1			"n"	"JAPAN"	"IWATE"	"KOYADORI"	39.427	142.015	219.78331786576874									25		1														
	1611	12	2				4	1	226	8.1			"n"	"JAPAN"	"IWATE"	"MIYAKO"	39.65	141.983	228.710389359726									9		1														
	1611	12	2				4	1	226	8.1			"n"	"JAPAN"	"IWATE"	"OKIRAI"	39.117	141.817	232.58156775885487									9		1														
	1611	12	2				4	1	226	8.1			"n"	"JAPAN"	"IWATE"	"RYORI"	39.03	141.87	227.79574483689714									7		1														
	1611	12	2				4	1	226	8.1			"n"	"JAPAN"	"FUKUSHIMA"	"NAKAMURA"	37.817	140.983	334.0451214899177									6		1														
	1614	11	26				4	1	228	7.7			"n"	"JAPAN"	"NIIGATA"	"TAKADA"	37.1	138.25	49.61910633707732											1				3										
	1616	9	9				4	1	231	7			"n"	"JAPAN"	"IWATE"	"KAMAISHI"	39.267	141.883	129.94738069097139											1				3										
	1616	9	9				4	1	231	7			"n"	"JAPAN"	"IWATE"	"OTSUCHI"	39.35	141.917	138.95037809121771											1				3										
	1616	9	9				4	1	231	7			"n"	"JAPAN"	"IWATE"	"UNOSUMAI (KAMAISHI)"	39.267	141.883	129.94738069097139											1				3										
	1616	12	6				2	1	233	7.5			"n"	"JAPAN"	"IWATE"	"KAMAISHI"	39.267	141.883	228.19956640758926											1			100	2										
	1616	12	6				2	1	233	7.5			"n"	"JAPAN"	"IWATE"	"OTSUCHI"	39.35	141.917	226.5522610256772											1			100	2										
	1616	12	6				2	1	233	7.5			"n"	"JAPAN"	"IWATE"	"UNOSUMAI (KAMAISHI)"	39.267	141.883	228.19956640758926											1			100	2										
	1616	12	6				2	1	233	7.5			"n"	"JAPAN"		"YOKKAICHIKO"	37.9667	138.35	548.6089192309729											1														
	1619	5	1				4	1	235	6.4			"n"	"JAPAN"		"MUGISHIMA"														1														
	1627	9					3	1	238	7.5			"y"	"JAPAN"	"CHIBA"	"WADA"	35.033	140.833	2608.191537500521											1														
	1627	9					3	1	238	7.5			"y"	"JAPAN"	"CHIBA"	"AWA"	35.11	140.1	2562.2297989241706											1														
	1633	3	1				4	1	245	7.1			"n"	"JAPAN"	"SHIZUOKA"	"ATAMI"	35.089	139.069	17.15109521662502											1										2				
	1633	3	1				4	1	245	7.1			"n"	"JAPAN"	"KANAGAWA"	"SAGAMI BAY"	35.2	139.5	27.319637242316762											1														
	1633	3	1				4	1	245	7.1			"n"	"JAPAN"	"SHIZUOKA"	"IZU PENINSULA, HONSHU"	34.8	139.06	46.1799236334563											1														
	1640	7	31				4	7	253	6.5	2676		"n"	"JAPAN"	"HOKKAIDO"	"HIDAKA"	42.87	142.46	171.24096283183084											1				3										
	1640	7	31				4	7	253	6.5	2676		"n"	"JAPAN"	"SHIZUOKA"	"UCHIURA BAY"	42.13	140.7	6.866792557288987											1			700	3						1	20	1		
	1640	7	31				4	7	253	6.5	2676		"n"	"JAPAN"	"HOKKAIDO"	"TOKACHI"	42.3	143.317	219.3273204254741											1														
	1642	9	4				4	1	256	6.7			"n"	"JAPAN"	"CHIBA"	"BOSO PENINSULA"	34.9	139.85	76.0892803082795											1														
	1644	10	18				4	1	259	6.9			"n"	"JAPAN"	"AKITA"	"KISAGATA"	39.2167	139.9	26.67746506208152											1			117	3										
	1650	12	13				1	9	273				"m"	"JAPAN"	"FUKUI"	"FUKUI"	35.9	136												1														
	1651						1	1	274				"n"	"JAPAN"	"MIYAGI"	"WATARI"	38.035	140.8511												1														
	1662	10	30	14			4	1	291	7.9			"n"	"JAPAN"	"KUMAMOTO"	"BEPPU"	33.284	131.493	182.00585153347635									1		1			5	1						1				
	1662	10	30	14			4	1	291	7.9			"n"	"JAPAN"	"KUMAMOTO"	"KYUSHU ISLAND"	33	131	172.1695875166494											1											1213	4		
	1662	10	30	14			4	1	291	7.9			"n"	"JAPAN"	"SHIZUOKA"	"IZU PENINSULA, HONSHU"	34.8	139	737.1138484984009											1														
	1662	10	30	14			4	1	291	7.9			"n"	"JAPAN"	"MIYAZAKI"	"MIYAZAKI CITY"	31.88	131.45	55.782149853508656									5		1														
	1662	10	30	14			4	1	291	7.9			"n"	"JAPAN"	"MIYAZAKI"	"NOBEOKA"	32.6	131.67	104.54324012681465									4		1														
	1662	10	30	14			4	1	291	7.9			"n"	"JAPAN"	"MIYAZAKI"	"TONOURA (MIYAZAKI)"	31.517	131.383	61.96494010038671									3		1														
	1664						4	6	293		4467		"n"	"JAPAN"	"OKINAWA"	"RYUKYU ISLAND"	27.8	128.2	7.4139358324632765											1				1						1		1		
	1666	5	31				3	1	294	6.4			"n"	"JAPAN"	"AICHI"	"HANDA"	34.8833	136.9333	17.773662583422865											1				2										
	1666	5	31				3	1	294	6.4			"n"	"JAPAN"	"AICHI"	"HIMAKAJIMA"	34.705	137.005	37.71611648876508											1														
	1666	5	31				3	1	294	6.4			"n"	"JAPAN"	"AICHI"	"SHINOJIMA"	34.6758	137.004	40.518186698707154											1				2										
	1666	5	31				3	1	294	6.4			"n"	"JAPAN"		"CHITA PENINSULA"	34.7	136.97	36.73368987412245											1										1				
	1667						4	1	295	6.7			"n"	"JAPAN"	"OKINAWA"	"SUKAMA"	25	125.5	0											1														
	1670	9					-1	9	305				"n"	"JAPAN"		"OSAKA BAY"	34.6	135.4												1														
	1670	12	17				4	1	307	6.4			"n"	"JAPAN"		"UNAKAMI"												2		1														
	1676	11					1	9	320				"n"	"JAPAN"	"IBARAKI"	"HITACHI"	36.58	140.67												1				1						1		1		
	1676	11					1	9	320				"n"	"JAPAN"	"FUKUSHIMA"	"IWAKI"	37.07	140.9												1				1						1		1		
	1676	11					1	9	320				"n"	"JAPAN"	"AOMORI"	"MUTSU"	40.933	141.4												1				1						1		1		
	1677	4	13				4	1	321	8.1			"n"	"JAPAN"	"IWATE"	"MIYAKO BAY"	39.65	141.983	176.9927007495117									6		1				1						1		1		
	1677	4	13				4	1	321	8.1			"n"	"JAPAN"	"IWATE"	"OTSUCHI"	39.35	141.917	192.73075337711637											1				1						1		1		
	1677	4	13				4	1	321	8.1			"n"	"JAPAN"	"IWATE"	"KUWAGASAKI"	39.65	141.9667	178.35428520730423											1				1						1		1		
	1677	4	13				4	1	321	8.1			"n"	"JAPAN"		"KAMAISHI"	39.28	141.89	197.97310565685794											1														
	1677	11	4				4	1	322	7.4			"n"	"JAPAN"	"CHIBA"	"BOSO PENINSULA"	34.9	139.85	151.12304577969343											1			246	3						2	223	2		
	1677	11	4				4	1	322	7.4			"n"	"JAPAN"	"CHIBA"	"CHOSHI"	35.75	140.867	101.15575286406317									5		1														
	1677	11	4				4	1	322	7.4			"n"	"JAPAN"	"TOKYO"	"HACHIJO ISLAND"	33.1	139.77	264.4343696596817									4		1										1				
	1677	11	4				4	1	322	7.4			"n"	"JAPAN"	"CHIBA"	"IWAFUNE"	35.21617	140.38776	104.19747960348636									7		1														
	1677	11	4				4	1	322	7.4			"n"	"JAPAN"	"CHIBA"	"KATSUURA"	35.133	140.25	114.96780142743151									8		1														
	1677	11	4				4	1	322	7.4			"n"	"JAPAN"	"FUKUSHIMA"	"ONAHAMA"	36.933	140.9	221.2038795816256									3		1			80	2										
	1677	11	4				4	1	322	7.4			"n"	"JAPAN"	"MIYAGI"	"IWANUMA"	38.13	140.87	351.88035319376553									4		1			123	3						2	490	3		
	1677	11	4				4	1	322	7.4			"n"	"JAPAN"	"CHIBA"	"EAST IZU"	36.97	140.83	226.783617409578									2		1														
	1677	11	4				4	1	322	7.4			"n"	"JAPAN"	"IBARAKI"	"KUJI"	36.4833	140.6167	182.94588836301642									2		1														
	1677	11	4				4	1	322	7.4			"n"	"JAPAN"	"AICHI"	"ISE BAY"														1										1				
	1677	11	4				4	1	322	7.4			"n"	"JAPAN"	"CHIBA"	"OHARA"	35.25	140.4	104.0288693259327									4		1														
	1677	11	4				4	1	322	7.4			"n"	"JAPAN"	"CHIBA"	"ONJUKU"	35.1833	140.3667	105.32258804964015									6		1														
	1677	11	4				4	1	322	7.4			"n"	"JAPAN"	"AICHI"	"OWARI"	35.1667	136.9167	418.34814302559107											1										1				
	1677	11	4				4	1	322	7.4			"n"	"JAPAN"	"CHIBA"	"YASADO"												6		1														
	1677	11	4				4	1	322	7.4			"n"	"JAPAN"	"IBARAKI"	"NAKAMINATO"	36.333	140.59	169.29924355659733									2		1														
	1677	11	4				4	1	322	7.4			"n"	"JAPAN"	"IBARAKI"	"MITO"	36.3667	140.4667	178.16468424645393											1			36	1						2	189	2		
	1677	11	4				4	1	322	7.4			"n"	"JAPAN"	"IBARAKI"	"SHIOYA"												3		1														
	1677	11	4				4	1	322	7.4			"n"	"JAPAN"	"CHIBA"	"TORAMI"	35.347	140.377	109.30281264876854									5		1														
	1677	11	4				4	1	322	7.4			"n"	"JAPAN"	"CHIBA"	"SEN'NINZUKA, CHOSHI"	35.742225	140.85649	100.9988655164747											1														
	1677	11	4				4	1	322	7.4			"n"	"JAPAN"	"CHIBA"	"HAMA-CHOU (ILIGAINE), CHOSHI"	35.73627	140.84581	101.03017832352573											1														
	1677	11	4				4	1	322	7.4			"n"	"JAPAN"	"CHIBA"	"BABA-CHOU (HONGO), CHOSHI"	35.73122	140.83996	100.8939412170846											1														
	1677	11	4				4	1	322	7.4			"n"	"JAPAN"	"CHIBA"	"KASAGAMI, CHOSHI"														1			2	1										
	1677	11	4				4	1	322	7.4			"n"	"JAPAN"	"CHIBA"	"KIMIGA-HAMA, CHOSHI"	35.70985	140.86529	97.6243679049779											1														
	1677	11	4				4	1	322	7.4			"n"	"JAPAN"	"CHIBA"	"KOBATAKEIKE (TAKAGAMIOOIKE), CHOSHI"	35.71018	140.85988	97.9451231847679											1										1	1	1		
	1677	11	4				4	1	322	7.4			"n"	"JAPAN"	"CHIBA"	"BEACH RIDGE OF KIMIGA-HAMA, CHOSHI"	35.71212	140.8595	98.13843334415739											1														
	1677	11	4				4	1	322	7.4			"n"	"JAPAN"	"CHIBA"	"TOKAWA, CHOSHI"	35.69743	140.85367	97.15380858216514											1										1				
	1677	11	4				4	1	322	7.4			"n"	"JAPAN"	"CHIBA"	"NA'ARAI, CHOSHI"	35.71167	140.83685	99.33382463983571											1														
	1680	9	28				2	1	5501				"n"	"JAPAN"	"SHIZUOKA"	"TOTOMI-NADA"	34.967	138.383	82.4233674795848											1				3						2		3		
	1680	9	28				2	1	5501				"n"	"JAPAN"	"FUKUSHIMA"	"FUKUSHIMA"	36.87	140.78	382.30799591062214											1				3						2		3		
	1687	7	26				-1	9	336				"m"	"JAPAN"	"FUKUI"	"WAKAURA"	35.61	135.91												1														
	1687	10	20	10	30		4	1	337	8.5			"n"	"JAPAN"	"MIYAGI"	"AYUKAWA"	38.3	141.5	15378.344946653164									2		1														
	1687	10	20	10	30		4	1	337	8.5			"n"	"JAPAN"	"IWATE"	"KAMAISHI (SANRIKU)"	39.267	141.883	15300.597404350816									0.5		1														
	1687	10	20	10	30		4	1	337	8.5			"n"	"JAPAN"	"OKINAWA"	"YONAGUSUKU, OKINAWA"	26.167	127.833	17125.362906822986									0.8		1														
	1687	10	20	10	30		4	1	337	8.5			"n"	"JAPAN"	"MIYAGI"	"SHIOGAMA"	38.3	141	15417.481472179723									0.5		1	60													
	1689						2	0	342				"y"	"JAPAN"	"IWATE"	"SANRIKU"	39.33	142										2		1														
	1696	7	25				-1	9	351				"n"	"JAPAN"	"FUKUSHIMA"	"ONAHAMA, IWAKI REGION"	36.945	140.9												1				1										
	1696	11	25				1	9	352				"n"	"JAPAN"	"MIYAGI"	"ISHINOMAKI"	38.417	141.3												1										1				
	1698	12	22				4	1	355	6.4			"n"	"JAPAN"	"OITA"	"COAST BUNGO STRAIT, OITA PREFECTURE"	33.28	131.7	2.218192569349291											1														
	1699	3					1	8	356				"n"	"JAPAN"	"NAGASAKI"	"NAGASAKI"	32.97	129.8												1														
	1699	3					1	8	356				"n"	"JAPAN"	"SAGA"	"SAGA"	33.17	130.2												1														
	1699	9	8				-1	0	357				"n"	"JAPAN"	"SHIZUOKA"	"SURUGA BAY"	35.066	138.54												1														
	1700	1	27	5	0		4	1	361	9			"n"	"JAPAN"	"WAKAYAMA"	"TANABE, KII PENINSULA"	33.717	135.367	8124.6523010709425									5		1														
	1700	1	27	5	0		4	1	361	9			"n"	"JAPAN"	"IWATE"	"OTSUCHI"	39.35	141.917	7272.209094153847	27	15							4		1										1	2	1		
	1700	1	27	5	0		4	1	361	9			"n"	"JAPAN"	"IWATE"	"KUWAGASAKI"	39.65	141.9667	7247.969811684103	27	15							4		1										1	13	1		
	1700	1	27	5	0		4	1	361	9			"n"	"JAPAN"	"IWATE"	"TSUGARUISHI"	39.583	141.98	7251.745113606756									5		1										1		1		1
	1700	1	27	5	0		4	1	361	9			"n"	"JAPAN"	"IBARAKI"	"NAKAMINATO"	36.333	140.59	7576.058754630582											1			2	1						1				
	1700	1	27	5	0		4	1	361	9			"n"	"JAPAN"	"SHIZUOKA"	"MIHO"	35	138.2	7836.323530481646									5.4		1														
	1700	1	27	5	0		4	1	361	9			"n"	"JAPAN"	"WAKAYAMA"	"SHINJO"	33.75	135.375	8121.608130925517											1										1				
	1700	4	1				2	8	362				"n"	"JAPAN"	"NAGASAKI"	"HIZEN"	33.15	130.18	67.12841857169056											1			1001	4						2	300	3		
	1700	4	16				2	1	2690	7			"n"	"JAPAN"	"NAGASAKI"	"TSUSHIMA"	34.3	129.3	11.092690973753442									6		1			1000	3						3		3		
	1703	12	30	17			4	1	367	8.2			"n"	"JAPAN"	"CHIBA"	"AINOHAMA"	34.917	139.817	24.123547020293948									10		1														
	1703	12	30	17			4	1	367	8.2			"n"	"JAPAN"	"SHIZUOKA"	"ATAMI"	35.089	139.069	79.54143710537952									5		1										1		1		
	1703	12	30	17			4	1	367	8.2			"n"	"JAPAN"	"CHIBA"	"BOSO PENINSULA"	34.9	139.85	22.654249310497022											1			125	3						4	1020	4		
	1703	12	30	17			4	1	367	8.2			"n"	"JAPAN"	"SHIZUOKA"	"CHIKUMA"	35.1	138.9	93.46467036969976									8.8		1														
	1703	12	30	17			4	1	367	8.2			"n"	"JAPAN"	"SHIZUOKA"	"CHIKURA REGION"	34.95	139.95	30.94341558656669									5		1			28	1										
	1703	12	30	17			4	1	367	8.2			"n"	"JAPAN"	"TOKYO"	"HACHIJO ISLAND"	33.1	139.77	177.49466159997394									3		1			1	1						1				
	1703	12	30	17			4	1	367	8.2			"n"	"JAPAN"	"TSHIBA"	"ICHIKAWA"	35.6	140.1	103.52324063910501									5		1										2	300	2		
	1703	12	30	17			4	1	367	8.2			"n"	"JAPAN"	"TSHIBA"	"ISHUMI DISTRICT"	35.23	140.4049	80.67855697432306											1			20	1						2	440	3		
	1703	12	30	17			4	1	367	8.2			"n"	"JAPAN"	"TOKYO"	"TOKYO BAY"	35.65	139.8	105.39660177967212									8		1														
	1703	12	30	17			4	1	367	8.2			"n"	"JAPAN"	"KANAGAWA"	"KAMAKURA"	35.309	139.55	71.31280776197208											1			600	3						2				
	1703	12	30	17			4	1	367	8.2			"n"	"JAPAN"	"CHIBA"	"KAMOGAWA"	35.1	140.1	52.16338010264735									6.1		1														
	1703	12	30	17			4	1	367	8.2			"n"	"JAPAN"	"SHIZUOKA"	"KATASE"	34.81	139.08	67.04256010484355									6		1										1		1		
	1703	12	30	17			4	1	367	8.2			"n"	"JAPAN"	"CHIBA"	"KATSUURA"	35.133	140.25	63.23337378684814									7.4		1														
	1703	12	30	17			4	1	367	8.2			"n"	"JAPAN"	"SHIZUOKA"	"KAWANA"	35.17	140.33	71.15678907129409									4		1														
	1703	12	30	17			4	1	367	8.2			"n"	"JAPAN"	"CHIBA"	"KOMINATO"	35.15	140.18	60.80962166882739									6.1		1			100	2						2	270	2		
	1703	12	30	17			4	1	367	8.2			"n"	"JAPAN"	"KANAGAWA"	"KUJUKURIHAMA"	35.22	139.72	58.149582305069906									6		1				2										
	1703	12	30	17			4	1	367	8.2			"n"	"JAPAN"	"CHIBA"	"NIEMONJIMA"	35.0775	140.10419	50.26995654611832									7		1														
	1703	12	30	17			4	1	367	8.2			"n"	"JAPAN"	"KANAGAWA"	"ODAWARA"	35.256	139.16	84.97012992404883									4		1			230	3										
	1703	12	30	17			4	1	367	8.2			"n"	"JAPAN"	"KANAGAWA"	"KATAURA"	35.5	139.6	90.60781553025808									4		1										2		2		
	1703	12	30	17			4	1	367	8.2			"n"	"JAPAN"	"TOKYO"	"OKADA, OSHIMA ISLAND"	34.783	139.383	39.280872948509156									10		1			56	2						1	58	1		
	1703	12	30	17			4	1	367	8.2			"n"	"JAPAN"	"SHIZUOKA"	"SHIMODA"	34.667	138.95	77.97828295584931									3		1			37	1						1	58	1		
	1703	12	30	17			4	1	367	8.2			"n"	"JAPAN"	"SHIZUOKA"	"SHIMOTAGA"	35.046089	139.073589	76.71399374275877									5		1														
	1703	12	30	17			4	1	367	8.2			"n"	"JAPAN"	"TOKYO"	"SHINAGAWA"	35.62	139.73	102.26708469004552									2		1														
	1703	12	30	17			4	1	367	8.2			"n"	"JAPAN"	"CHIBA"	"TATEYAMA"	34.983	139.85	31.726688442062763									5.6		1														
	1703	12	30	17			4	1	367	8.2			"n"	"JAPAN"	"CHIBA"	"TOGAWA"	35.7	140.85	146.4612962198874									4		1														
	1703	12	30	17			4	1	367	8.2			"n"	"JAPAN"	"CHIBA"	"TORAMI"	35.347	140.377	89.02250998782978									6		1														
	1703	12	30	17			4	1	367	8.2			"n"	"JAPAN"	"IZU-OSHIMA, TOKYO"	"USAMI"	35.02	139.05	77.22547440185048									5		1			300	3						1		1		
	1703	12	30	17			4	1	367	8.2			"n"	"JAPAN"	"CHIBA"	"WADA"	35.54	140.02	95.32514376422195									10.5		1														
	1703	12	30	17			4	1	367	8.2			"n"	"JAPAN"	"TOKYO"	"URAYASU"	35.671	139.889	108.03115260958873									2		1														
	1703	12	30	17			4	1	367	8.2			"n"	"JAPAN"	"CHIBA"	"FUNABASHI"	35.693	139.983	111.42092826722019									2		1														
	1703	12	30	17			4	1	367	8.2			"n"	"JAPAN"	"IWATE"	"MINATO"	34.6333	138.8833	84.34670350031837									5.3		1														
	1703	12	30	17			4	1	367	8.2			"n"	"JAPAN"	"CHIBA"	"HOTA"	35.133	139.85	48.253410056853674									6.5		1														
	1703	12	30	17			4	1	367	8.2			"n"	"JAPAN"	"IBARAKI"	"IWAI"	36.333	140.583	194.60374785544553									7.3		1														
	1703	12	30	17			4	1	367	8.2			"n"	"JAPAN"	"SHIZUOKA"	"UCHIURA"	35.017	138.883	90.93034169310569									2		1														
	1703	12	30	17			4	1	367	8.2			"n"	"JAPAN"	"KAGOSHIMA"	"OINO"												4		1														
	1703	12	30	17			4	1	367	8.2			"n"	"JAPAN"	"CHIBA"	"ONJUKU"	35.1833	140.3667	74.53083531671635									8		1										1		1		
	1703	12	30	17			4	1	367	8.2			"n"	"JAPAN"	"CHIBA"	"MERA"	34.917	139.817	24.123547020293948											1				3										
	1703	12	30	17			4	1	367	8.2			"n"	"JAPAN"	"KANAGAWA"	"FUJISAWA-HIRATSUKA"	35.317	139.367	79.04140680476378									4		1														
	1703	12	30	17			4	1	367	8.2			"n"	"JAPAN"	"TOKYO"	"HABUMINATO, OSHIMA ISLAND"	34.6833	139.4333	33.65147930722854									10		1										1				
	1703	12	30	17			4	1	367	8.2			"n"	"JAPAN"	"AICHI"	"HOSOYA"												10		1														
	1703	12	30	17			4	1	367	8.2			"n"	"JAPAN"	"MIE"	"KUKI"	40.16	141.78	630.7625912414179											1										1				
	1703	12	30	17			4	1	367	8.2			"n"	"JAPAN"	"CHIBA"	"KUJUKURI, BOSO PENINSULA"	35.53	140.42	108.04380427551212											1				3										
	1703	12	30	17			4	1	367	8.2			"n"	"JAPAN"	"TOKYO"	"REIGAN REGION, TOKYO"	35.6833	139.7833	109.10193248781673									2		1														
	1703	12	30	17			4	1	367	8.2			"n"	"JAPAN"	"CHIBA"	"ISEJIGAURA"	35.72062	140.86942	149.34080317027176									5.9		1										1	5	1		
	1703	12	30	17			4	1	367	8.2			"n"	"JAPAN"	"CHIBA"	"KOBATAKEIKE"	35.71018	140.85988	147.90028414231543									11.7		1										1				
	1703	12	30	17			4	1	367	8.2			"n"	"JAPAN"	"CHIBA"	"NAGASAKI"	35.695	140.86236	146.7828409873817									7.7		1											2	1		
	1703	12	30	17			4	1	367	8.2			"n"	"JAPAN"	"CHIBA"	"TOKAWA"	35.69893	140.85106	146.43487287026034									10.8		1												1		
	1703	12	30	17			4	1	367	8.2			"n"	"JAPAN"	"CHIBA"	"NAARAI"	35.71167	140.83685	146.66645916715422									4.8		1											1	1		
	1704	1					2	0	370				"y"	"JAPAN"		"SURUGA"														1														
	1704						2	0	368				"n"	"JAPAN"	"WAKAYAMA"	"TAIJI"	33.58	135.95	5.144185534963749											1										1	15	1		
	1704						2	0	368				"n"	"JAPAN"	"WAKAYAMA"	"MIWASAKI"	33.683	135.983	9.34013438702424											1										1	15	1		
	1707	10	28	4			4	1	2952	8.4			"n"	"JAPAN"	"MIE"	"OWASE"	34.083	136.2	147.66751196334886											1			1000	3						4	1000	4	1000	4
	1707	10	28	4			4	1	2952	8.4			"n"	"JAPAN"	"MIE"	"NIEURA, KUMANONADA"	34.3	136.7	103.78280653043744									11		1														
	1707	10	28	5			4	1	377	8.4			"n"	"JAPAN"	"AICHI"	"AICHI AND MIE"	35	137.25	301.60237841629765											1			32	1						2	505	3		
	1707	10	28	5			4	1	377	8.4			"n"	"JAPAN"	"KOCHI"	"MUROTOMISAKI"	33.267	134.167	59.46558638724091									6.5		1														
	1707	10	28	5			4	1	377	8.4			"n"	"JAPAN"	"SHIZUOKA"	"IZU PENINSULA, HONSHU"	34.8	139	426.62622122465945											1			11	1						3	1168	4		
	1707	10	28	5			4	1	377	8.4			"n"	"JAPAN"	"KOCHI"	"KURE"	33.333	133.25	145.16543946369328									25.7		1			200	3										
	1707	10	28	5			4	1	377	8.4			"n"	"JAPAN"	"OSAKA"	"OSAKA BAY"	34.5	135.33	152.3089339771675											1			700	3							603	3		
	1707	10	28	5			4	1	377	8.4			"n"	"JAPAN"	"SHIZUOKA"	"SAGARA"	34.63	138.18	350.4843994844292									5.5		1														
	1707	10	28	5			4	1	377	8.4			"n"	"JAPAN"	"SHIZUOKA"	"SHIMODA"	34.667	138.95	416.7269487672148									3.6		1														
	1707	10	28	5			4	1	377	8.4			"n"	"JAPAN"	"SHIZUOKA"	"SURUGA GULF, HONSHU"	34.83	138.58	393.1471109286857											1			13	1						3	1343			
	1707	10	28	5			4	1	377	8.4			"n"	"JAPAN"	"KOCHI"	"TANEZAKI"	33.5	133.567	119.49560593609928									24		1			704	3						2		2		
	1707	10	28	5			4	1	377	8.4			"n"	"JAPAN"	"MIE"	"TOBA"	34.483	136.817	234.7317750140068									11.5		1														
	1707	10	28	5			4	1	377	8.4			"n"	"JAPAN"	"KOCHI"	"TOSA"	33.51	133.44	131.17003474926202									20		1				4							18000	4		
	1707	10	28	5			4	1	377	8.4			"n"	"JAPAN"	"SHIZUOKA"	"TOTOMI-NADA"	34.967	138.383	384.3714395905741											1			20	1						3	2002	4		
	1707	10	28	5			4	1	377	8.4			"n"	"JAPAN"	"AICHI"	"TOYOHASHI"	34.77	137.37	294.4629708592938											1										1				
	1707	10	28	5			4	1	377	8.4			"n"	"JAPAN"	"TOKUSHIMA"	"KIKI"	33.767	134.583	66.04246396231935											1			7	1										
	1707	10	28	5			4	1	377	8.4			"n"	"JAPAN"	"TOKUSHIMA"	"ASAKAWA"	33.62	134.37	61.39862821353087											1			170	3								2		
	1707	10	28	5			4	1	377	8.4			"n"	"JAPAN"	"TOKUSHIMA"	"SHISHIKUI"	33.567	134.317	60.63482026849231											1			11	1								2		
	1707	10	28	5			4	1	377	8.4			"n"	"JAPAN"		"IHAMA"														1			18	1										
	1707	10	28	5			4	1	377	8.4			"n"	"JAPAN"	"FUKUSHIMA"	"FUKUSHIMA"														1			100	1										
	1707	10	28	5			4	1	377	8.4			"n"	"JAPAN"	"KOCHI"	"SUSAKI"	33.367	133.283	142.52071196298567											1			400	3									432	3
	1707	10	28	5			4	1	377	8.4			"n"	"JAPAN"	"WAKAYAMA"	"WAKAYAMA"	34.05	135.18	100.65580340170686											1			1	1							9	1		
	1707	10	28	5			4	1	377	8.4			"n"	"JAPAN"	"EHIME"	"EHIME-MISAKI"	33.83	132.7	207.2338245746312											1														
	1707	10	28	5			4	1	377	8.4			"n"	"JAPAN"		"YAMANOUCHI"	34.04	131.5	320.06199829460803											1														
	1707	10	28	5			4	1	377	8.4			"n"	"JAPAN"	"TOKYO"	"HACHIJO ISLAND"	33.1	139.77	463.76396520655214											1														
	1707	10	28	5			4	1	377	8.4			"n"	"JAPAN"	"TOKUSHIMA"	"MUGI"	33.67	134.417	63.133836792965745											1													700	3
	1707	10	28	5			4	1	377	8.4			"n"	"JAPAN"	"EHIME"	"YOSHIDA"	33.217	132.57	207.91372976533088											1													50	1
	1707	10	28	5			4	1	377	8.4			"n"	"JAPAN"	"TOKUSHIMA"	"YUKI"	33.67	134.6	55.34710061262497											1														
	1707	10	28	5			4	1	377	8.4			"n"	"JAPAN"	"KOCHI"	"USA"	33.452	133.45	128.76463475746883											1			400	3										
	1707	10	28	5			4	1	377	8.4			"n"	"JAPAN"	"KOCHI"	"AKAOKA (KONAN)"	33.55	133.7	109.47421745766084											1													31	1
	1707	10	28	5			4	1	377	8.4			"n"	"JAPAN"	"KOCHI"	"KOCHI"	33.55	133.55	122.6252608987532											1													2129	4
	1708	2	13				4	1	379	7			"n"	"JAPAN"	"MIE"	"ISE YAMADA, MIKAWA ATSUMI"	34.6	136.8	69.05634098306483											1										1				
	1708	2	13				4	1	379	7			"n"	"JAPAN"	"MIE"	"NAGASHIMA, HACHIJO IS."	35.15	139.8	286.8341355825061											1										1				
	1708	2	13				4	1	379	7			"n"	"JAPAN"	"AICHI"	"ATSUMI"	34.73	137.22	83.46855339217872											1														
	1708	2	13				4	1	379	7			"n"	"JAPAN"	"MIE"	"FUKKIURA"	34.5	136.73	60.78429896887135											1														
	1711	12	20				4	1	384	6.7			"n"	"JAPAN"	"KAGAWA"	"TAKAMATSU"	34.333	134.05	5.880385963030711									2		1														
	1715	12	29				4	1	386	6.6			"n"	"JAPAN"	"OITA"	"BEPPU GULF"	33.3	131.5	18.627130091777516											1														
	1716						-1	0	5502				"y"	"JAPAN"	"TOKYO"	"OSHIMA ISLAND"	34.73	139.4	0											1														
	1718	10	5				-1	0	388				"m"	"JAPAN"	"MIE"	"MIE COAST"	34.4	136.9												1														
	1722	9	24				-1	9	390				"n"	"JAPAN"	"MIE"	"ISE BAY"	35.127	136.909												1														
	1726	4	1				4	1	399	6.6			"n"	"JAPAN"	"FUKUI"	"KATSUYAMA"	36.08	136.49	50.382932137276455											1				3						2		2		
	1730	7	8	8	45		4	1	400	9.1			"n"	"JAPAN"	"MIYAGI"	"OJIKA (ONAGAWA)"	38.45	141.45	16979.256812869127									2		1										1				
	1730	7	8	8	45		4	1	400	9.1			"n"	"JAPAN"	"MIYAGI"	"MONOU"	38.56	141.41	16982.144800797734									2		1										1				
	1730	7	8	8	45		4	1	400	9.1			"n"	"JAPAN"	"MIYAGI"	"MOTOYOSHI"	38.8	141.5	16972.872479952075									2		1										1				
	1730	7	8	8	45		4	1	400	9.1			"n"	"JAPAN"	"MIYAGI"	"SHIOGAMA"	38.31	141.03	17016.643976566895									2		1														
	1730	7	8	8	45		4	1	400	9.1			"n"	"JAPAN"	"IWATE"	"OOFUNATO"	39.074	141.71	16952.833023602227									2		1										1				
	1730	7	8	8	45		4	1	400	9.1			"n"	"JAPAN"	"IWATE"	"AKASAKI"	39.067	141.733	16950.89675336264									2		1										1				
	1731	10	7				-1	1	401	6.6			"y"	"JAPAN"	"FUKUSHIMA"	"FUKUSHIMA"	37.4	141												1														
	1732	12	4				3	1	406	6.5			"n"	"JAPAN"	"TSHIBA"	"KUJUKURI BEACH"	35.53	140.42	50.3301339334666									2		1														
	1732						1	0	403				"m"	"JAPAN"	"TOKYO"	"YAENE, HACHIJO ISLAND"	33.1	139.767	0									2		1														
	1732						1	0	403				"m"	"JAPAN"	"SHIZUOKA"	"IZU PENINSULA, HONSHU"	34.7	138.95	192.88877236759748											1														
	1741	8	29				4	6	419	6.9	2673		"n"	"JAPAN"	"HOKKAIDO"	"NEBUTA"	41.45	140.0394	56.18876310414021											1			1467	4						3	789	3		
	1741	8	29				4	6	419	6.9	2673		"n"	"JAPAN"	"HOKKAIDO"	"OSHIMA ISLAND"	41.51	139.37	1.110636815311774									10		1										2				
	1741	8	29				4	6	419	6.9	2673		"n"	"JAPAN"	"NIIGATA"	"SADO ISLAND"	38	138.5	395.6865219965427									90		1										1		1		
	1741	8	29				4	6	419	6.9	2673		"n"	"JAPAN"	"AOMORI"	"TSUGARU"	40.8036	140.26	107.52916663333187											1			140	3						1	82	2		
	1741	8	29				4	6	419	6.9	2673		"n"	"JAPAN"	"HOKKAIDO"	"KUMAISHI"	42.125	139.987	86.29781442173505									11		1				4						3		3		
	1741	8	29				4	6	419	6.9	2673		"n"	"JAPAN"	"HOKKAIDO"	"MATSUMAE"	41.425	140.112	62.54681762600567									7		1														
	1741	8	29				4	6	419	6.9	2673		"n"	"JAPAN"	"HOKKAIDO"	"NARUGAMI"	42.127	139.967	85.50142003091396									11		1														
	1741	8	29				4	6	419	6.9	2673		"n"	"JAPAN"	"HOKKAIDO"	"AINUMA"	42.068	140.065	85.5447784293065									11		1														
	1741	8	29				4	6	419	6.9	2673		"n"	"JAPAN"	"HOKKAIDO"	"TOYOHAMA"	42.042	140.083	84.48923391760242									10		1														
	1741	8	29				4	6	419	6.9	2673		"n"	"JAPAN"	"HOKKAIDO"	"SAKAEHAMA"	42	140.118	83.39404293724786									4		1														
	1741	8	29				4	6	419	6.9	2673		"n"	"JAPAN"	"HOKKAIDO"	"TORIYAMA"	41.993	140.122	83.13090579952328									6		1														
	1741	8	29				4	6	419	6.9	2673		"n"	"JAPAN"	"HOKKAIDO"	"OTOBE"	41.972	140.133	82.32472686610112									9		1														
	1741	8	29				4	6	419	6.9	2673		"n"	"JAPAN"	"HOKKAIDO"	"FUSHIKIDO"	41.912	140.138	78.61186952353127									11		1														
	1741	8	29				4	6	419	6.9	2673		"n"	"JAPAN"	"HOKKAIDO"	"TAZAWA"	41.902	140.133	77.63380306977558									8		1														
	1741	8	29				4	6	419	6.9	2673		"n"	"JAPAN"	"HOKKAIDO"	"TOMARI"	41.893	140.137	77.34153075919504									9		1														
	1741	8	29				4	6	419	6.9	2673		"n"	"JAPAN"	"HOKKAIDO"	"ESASHI"	41.872	140.125	75.2214272389484									5		1														
	1741	8	29				4	6	419	6.9	2673		"n"	"JAPAN"	"HOKKAIDO"	"MINAMIHAMA"	41.848	140.123	73.65903259810007									6		1														
	1741	8	29				4	6	419	6.9	2673		"n"	"JAPAN"	"HOKKAIDO"	"KAMINOKUNI"	41.807	140.105	70.07872297513057									3		1														
	1741	8	29				4	6	419	6.9	2673		"n"	"JAPAN"	"HOKKAIDO"	"HARAUTA"	41.81	140.088	69.00946482975505									9		1														
	1741	8	29				4	6	419	6.9	2673		"n"	"JAPAN"	"HOKKAIDO"	"KINOKO"	41.76	140.063	64.56445153781455									7		1														
	1741	8	29				4	6	419	6.9	2673		"n"	"JAPAN"	"HOKKAIDO"	"OOGIISHI"	41.75	140.058	63.70415114783379									8		1														
	1741	8	29				4	6	419	6.9	2673		"n"	"JAPAN"	"HOKKAIDO"	"SHIOFUKI"	41.74	140.048	62.477221138513364									10		1														
	1741	8	29				4	6	419	6.9	2673		"n"	"JAPAN"	"HOKKAIDO"	"ISHIZAKI"	41.705	140.022	58.929520928302125									12		1														
	1741	8	29				4	6	419	6.9	2673		"n"	"JAPAN"	"HOKKAIDO"	"CHIISAGO"	41.645	139.995	54.557726159438594									12		1														
	1741	8	29				4	6	419	6.9	2673		"n"	"JAPAN"	"HOKKAIDO"	"GANKAKEZAWA"	41.627	139.99	53.605904362205905									34		1														
	1741	8	29				4	6	419	6.9	2673		"n"	"JAPAN"	"HOKKAIDO"	"HARAGUCHI"	41.588	139.982	51.99184180761505									9		1														
	1741	8	29				4	6	419	6.9	2673		"n"	"JAPAN"	"HOKKAIDO"	"ERA"	41.54	139.993	52.191409816387875									13		1														
	1741	8	29				4	6	419	6.9	2673		"n"	"JAPAN"	"HOKKAIDO"	"KIYOBE"	41.522	140.003	52.90047003049827									11		1														
	1741	8	29				4	6	419	6.9	2673		"n"	"JAPAN"	"HOKKAIDO"	"MOGUSA"	41.492	140.013	53.69856728809722									8		1														
	1741	8	29				4	6	419	6.9	2673		"n"	"JAPAN"	"HOKKAIDO"	"SHIZUURA"	41.483	140.02	54.31230502232273									7		1														
	1741	8	29				4	6	419	6.9	2673		"n"	"JAPAN"	"HOKKAIDO"	"AKAGAMI"	41.478	140.023	54.58680517239485									5		1														
	1741	8	29				4	6	419	6.9	2673		"n"	"JAPAN"	"HOKKAIDO"	"SATSUMAE"	41.46	140.027	55.05325921136396									16		1														
	1741	8	29				4	6	419	6.9	2673		"n"	"JAPAN"	"HOKKAIDO"	"TATEHAMA"	41.443	140.043	56.572719616873904									6		1														
	1741	8	29				4	6	419	6.9	2673		"n"	"JAPAN"	"HOKKAIDO"	"OOISO"	41.423	140.103	61.83296530022593									11		1														
	1741	8	29				4	6	419	6.9	2673		"n"	"JAPAN"	"HOKKAIDO"	"TOYOOKA"	41.427	140.12	63.17943338785698									14		1														
	1741	8	29				4	6	419	6.9	2673		"n"	"JAPAN"	"HOKKAIDO"	"DENCHIZAWA"	41.427	140.127	63.75943801384829									20		1														
	1741	8	29				4	6	419	6.9	2673		"n"	"JAPAN"	"HOKKAIDO"	"SHIRAKAMI"	41.403	140.177	68.28653495608877									23		1														
	1741	8	29				4	6	419	6.9	2673		"n"	"JAPAN"	"HOKKAIDO"	"YOSHIOKA"	41.443	140.24	72.9483983818947									3		1														
	1741	8	29				4	6	419	6.9	2673		"n"	"JAPAN"	"HOKKAIDO"	"FUKUSHIMA"	41.48	140.26	74.35587715879123									5		1														
	1741	8	29				4	6	419	6.9	2673		"n"	"JAPAN"	"AOMORI"	"MINMAYA"	41.202	140.433	94.91573424692939									4		1														
	1741	8	29				4	6	419	6.9	2673		"n"	"JAPAN"	"AOMORI"	"KODOMARI"	41.133	140.305	88.26278898927823									6		1														
	1741	8	29				4	6	419	6.9	2673		"n"	"JAPAN"	"AOMORI"	"JUSAN"	41.043	140.322	94.54411985124918									5		1														
	1741	8	29				4	6	419	6.9	2673		"n"	"JAPAN"	"AOMORI"	"AJIGASAWA"	40.782	140.213	106.61633707089516									4		1														
	1741	8	29				4	6	419	6.9	2673		"n"	"JAPAN"	"AOMORI"	"SHIMA"	40.743	140.112	104.64445492729305									4		1														
	1741	8	29				4	6	419	6.9	2673		"n"	"JAPAN"	"AOMORI"	"SEKI"	40.745	140.103	104.0165108329792									4		1														
	1741	8	29				4	6	419	6.9	2673		"n"	"JAPAN"	"AOMORI"	"KANAIZAWA"	40.75	140.093	103.07121351337864									5		1														
	1741	8	29				4	6	419	6.9	2673		"n"	"JAPAN"	"AOMORI"	"TANOSAWA"	40.768	140.05	99.33976719120855									5		1														
	1741	8	29				4	6	419	6.9	2673		"n"	"JAPAN"	"AOMORI"	"HIROTO"	40.67	139.947	104.14868851340636									3		1														
	1741	8	29				4	6	419	6.9	2673		"n"	"JAPAN"	"AOMORI"	"YOKOISO"	40.63	139.887	105.93989255296874									5		1														
	1741	8	29				4	6	419	6.9	2673		"n"	"JAPAN"	"NIIGATA"	"WASHIZAKI"	38.32	138.53	360.31035069641473									5		1														
	1741	8	29				4	6	419	6.9	2673		"n"	"JAPAN"	"NIIGATA"	"RYOTSU"	38.07	138.45	388.8960424143013									8		1														
	1741	8	29				4	6	419	6.9	2673		"n"	"JAPAN"	"NIIGATA"	"SUITSU"	38.07	138.6	386.49933554668957									2		1														
	1741	8	29				4	6	419	6.9	2673		"n"	"JAPAN"	"NIIGATA"	"AIKAWA"	38.02	138.23	398.5311874187315									4		1														
	1741	8	29				4	6	419	6.9	2673		"n"	"JAPAN"	"ISHIKAWA"	"NOTO"	37.33	136.75	514.9527558096183									4		1														
	1741	8	29				4	6	419	6.9	2673		"n"	"JAPAN"	"FUKUI"	"OBAMA"	35.53	135.68	736.5229923520324									1		1														
	1741	8	29				4	6	419	6.9	2673		"n"	"JAPAN"	"SHIMANE"	"GOHTSU"	35.02	132.23	952.0998890574292									2		1														
	1747	3					2	0	427				"n"	"JAPAN"	"SHIZUOKA"	"IZU PENINSULA"	34.8	139	202.54664583550965											1										1				
	1747	3					2	0	427				"n"	"JAPAN"	"TOKYO"	"HACHIJO ISLAND"	33.1	139.77	2.80042947078494											1														
	1751	5	20				4	3	439	6.6			"n"	"JAPAN"	"NIIGATA"	"NAOETSUKO"	37.1833	138.25	13.446506668101513											1			2100	4						4	5800	4		
	1751	5	25	5	30		4	1	440	8.5			"n"	"JAPAN"	"IWATE"	"OTSUCHI"	39.35	141.917	16972.209170189355									2		1										1				
	1751	5	25	5	30		4	1	440	8.5			"n"	"JAPAN"	"MIYAGI"	"KESENNUMA"	38.9	141.57	16996.441629085315									2		1										1				
	1751	5	25	5	30		4	1	440	8.5			"n"	"JAPAN"	"MIYAGI"	"OJIKA PENINSULA"	38.271389	141.523611	16991.48361412086									2		1										1				
	1751	7	24				1	0	441				"n"	"JAPAN"	"MIYAGI"	"OJIKA PENINSULA"	38.28	141.52												1														
	1751	7	24				1	0	441				"n"	"JAPAN"	"MIYAGI"	"KESENNUMA"	38.906	141.575												1														
	1762	10	31	5			4	1	474	6.6			"n"	"JAPAN"	"SHIZUOKA"	"USHIMA"	35.02	139.05	343.2183103263577											1										1	26	1		
	1763	1	29	9			3	1	475	7.4			"n"	"JAPAN"	"AOMORI"	"HACHINOHE"	40.533	141.533	49.38048872660182									5		1										2	1	1		
	1763	1	29	9			3	1	475	7.4			"n"	"JAPAN"	"HOKKAIDO"	"HAKODATE"	41.783	140.733	152.2514810397455											1										2	1	1		
	1763	1	29	9			3	1	475	7.4			"n"	"JAPAN"	"IWATE"	"KUJI"	40.183	141.8	70.5810381498384									5		1										1				
	1763	1	29	9			3	1	475	7.4			"n"	"JAPAN"	"IWATE"	"TANEICHI"	40.4	141.733	49.836978927808794											1										1				
	1763	3	11				4	1	476	7.8			"n"	"JAPAN"	"AOMORI"	"HACHINOHE"	40.533	141.533	96.7223511741801											1										2		2		
	1763	3	15				4	1	477	7.1			"n"	"JAPAN"	"AOMORI"	"MINATO"	40.5217	141.5097	45.974943049524775											1				3						3		3		
	1766	3	8				4	1	487	6.9			"n"	"JAPAN"	"AOMORI"	"AOMORI"	40.83	140.73	8.174690140186227											1				3						3		3		
	1766	3	8				4	1	487	6.9			"n"	"JAPAN"	"CHIBA"	"CHOSHI"	35.75	140.867	571.8506221250612											1				3						3		3		
	1766	3	8				4	1	487	6.9			"n"	"JAPAN"	"AOMORI"	"TSUGARU"	40.83	140.75	8.842947649743618											1										3		3		
	1768	7	22				4	1	497	6.5			"n"	"JAPAN"	"OKINAWA"	"ZAMAMI, KERAMA ISLANDS"	26.25	127.31	19.77762123699634									1.2		1										2	9	1		
	1769	8	29				4	1	499	7.4			"n"	"JAPAN"	"KAGOSHIMA"	"SATSUMA"	31.3	130.5	180.19684528050706											1														
	1769	8	29				4	1	499	7.4			"n"	"JAPAN"	"OITA"	"USUKI"	33.12	131.8	92.85055233407411									2.5		1														
	1769	8	29				4	1	499	7.4			"n"	"JAPAN"	"OITA"	"SAEKI"	32.967	131.917	74.377844020888									2		1														
	1769	8	29				4	1	499	7.4			"n"	"JAPAN"	"OITA"	"KAMAE"	32.8	131.933	55.804195241217									2		1														
	1769	8	29				4	1	499	7.4			"n"	"JAPAN"	"MIYAZAKI"	"NOBEOKA"	32.6	131.67	45.492969699240746									2		1														
	1771	4	24				4	1	503	7.4			"n"	"JAPAN"	"OKINAWA"	"ARA"												56.5		1														
	1771	4	24				4	1	503	7.4			"n"	"JAPAN"	"OKINAWA"	"IBARUMA"												32.7		1														
	1771	4	24				4	1	503	7.4			"n"	"JAPAN"	"OKINAWA"	"MIYARA, ISHIGAKI ISLAND"	24.35	124.217	39.6730917383191									85.4		1			13486	4						4	3237	4		
	1771	4	24				4	1	503	7.4			"n"	"JAPAN"	"OKINAWA"	"YONAGUNI ISLAND"	24.44	123	140.75662713748972											1														
	1771	4	24				4	1	503	7.4			"n"	"JAPAN"	"OKINAWA"	"MIYAKO ISLAND"	24.79	125.26	130.9186557088223									12		1			2548	4						4	1054	4		
	1771	4	24				4	1	503	7.4			"n"	"JAPAN"	"OKINAWA"	"NOBARUZAKI"												46.7		1														
	1771	4	24				4	1	503	7.4			"n"	"JAPAN"	"OKINAWA"	"OHAMA"												44.2		1														
	1771	4	24				4	1	503	7.4			"n"	"JAPAN"	"OKINAWA"	"OKAWA"												9.2		1														
	1771	4	24				4	1	503	7.4			"n"	"JAPAN"	"OKINAWA"	"SHIRAHO"												60		1														
	1771	4	24				4	1	503	7.4			"n"	"JAPAN"	"OKINAWA"	"TAMATORISAKI"												32.1		1														
	1771	4	24				4	1	503	7.4			"n"	"JAPAN"	"OKINAWA"	"TOMISAKI"												9.2		1														
	1771	4	24				4	1	503	7.4			"n"	"JAPAN"	"OKINAWA"	"YARABE"												5.8		1														
	1771	4	24				4	1	503	7.4			"n"	"JAPAN"	"OKINAWA"	"ARAGUSUKU ISLAND"	24.35	123.98	50.59775572899725											1			4696	4						4	1062	4		
	1771	4	24				4	1	503	7.4			"n"	"JAPAN"	"OKINAWA"	"KUROSHIMA ISLAND"	24.25	124	41.19148325639079											1			4697	4						4	1061	4		
	1771	4	24				4	1	503	7.4			"n"	"JAPAN"	"OKINAWA"	"IRABU ISLAND"	24.85	125.2	131.12864662285583											1				3						3		3		
	1771	4	24				4	1	503	7.4			"n"	"JAPAN"	"OKINAWA"	"TAKETOMI ISLAND"	24.34	124.085	43.53730017783569											1				3						3		3		
	1771	4	24				4	1	503	7.4			"n"	"JAPAN"	"OKINAWA"	"TAKETOYO"														1														
	1771	4	24				4	1	503	7.4			"n"	"JAPAN"	"OKINAWA"	"TARAMA ISLAND"	24.64	124.7	81.69105021372505											1				3						3		3		
	1771	4	24				4	1	503	7.4			"n"	"JAPAN"	"OKINAWA"	"MIZUNA ISLAND"														1				3						3		3		
	1771	4	24				4	1	503	7.4			"n"	"JAPAN"	"OKINAWA"	"HATERUMA ISLAND"	24.0667	123.7833	53.078180703360495											1														
	1771	4	24				4	1	503	7.4			"n"	"JAPAN"	"OKINAWA"	"HIRAE"	24.339	124.175	39.63822712114478											1												1		
	1771	4	24				4	1	503	7.4			"n"	"JAPAN"	"OKINAWA"	"ISHIGAKI ISLAND"	24.333	124.167	39.28161780091793									15		1	40			2								1		
	1771	4	24				4	1	503	7.4			"n"	"JAPAN"	"OKINAWA"	"KERAMA ISLAND"	26.25	127.31	392.7370699779218											1														
	1771	4	24				4	1	503	7.4			"n"	"JAPAN"	"OKINAWA"	"KUME ISLAND"	26.3	126.8	358.38060421984596											1														
	1771	4	24				4	1	503	7.4			"n"	"JAPAN"	"OKINAWA"	"MAEZATO"	24.336	124.175	39.32365362493048											1												1		
	1771	4	24				4	1	503	7.4			"n"	"JAPAN"	"OKINAWA"	"MIYAKOKU"	24.72	125.3	129.05520134167293											1										1				
	1771	4	24				4	1	503	7.4			"n"	"JAPAN"	"OKINAWA"	"NISSATO"														1										1				
	1771	4	24				4	1	503	7.4			"n"	"JAPAN"	"OKINAWA"	"SHINKAWA"														1												1		
	1771	4	24				4	1	503	7.4			"n"	"JAPAN"	"OKINAWA"	"TOMOSATO"														1										1				
	1771	4	24				4	1	503	7.4			"n"	"JAPAN"	"OKINAWA"	"TOYASHIRO"														1												1		
	1771	4	24				4	1	503	7.4			"n"	"JAPAN"	"OKINAWA"	"TOZATO"														1												1		
	1771	4	24				4	1	503	7.4			"n"	"JAPAN"	"OKINAWA"	"TRIOMOTE ISLAND"	24.3	123.9	52.50522999238598											1														
	1771	4	24				4	1	503	7.4			"n"	"JAPAN"	"OKINAWA"	"URUKA"	24.732	125.354	134.20073073961257											1										1				
	1771	4	24				4	1	503	7.4			"n"	"JAPAN"	"OKINAWA"	"YASURA"														1												1		
	1775	10					2	0	515				"n"	"JAPAN"	"TOKUSHIMA"	"AWA"	34.06	134.2												1				3						2		2		
	1775	10					2	0	515				"n"	"JAPAN"	"KANAGAWA"	"SAGAMI BAY"	35.2	139.5												1				3						2		2		
	1775	10					2	0	515				"n"	"JAPAN"	"SHIZUOKA"	"IZU PENINSULA, HONSHU"	34.8	139												1				3						2		2		
	1778	7					1	0	520				"y"	"JAPAN"	"KUMAMOTO"	"COAST OF KUMAMOTO"														1														
	1780	6	29				4	1	524	7.5			"y"	"JAPAN"		"EAST COAST HOKKAIDO"														1														
	1780	9	9				4	6	525		4523		"n"	"JAPAN"	"KAGOSHIMA"	"KAGOSHIMA BAY"	31.583	130.567	12.762948322982819											1														
	1780	10	31				4	6	528		5904		"n"	"JAPAN"	"KAGOSHIMA"	"KAGOSHIMA BAY"	31.583	130.567	12.762948322982819											1														
	1781	4	11				4	6	529		859		"n"	"JAPAN"	"KAGOSHIMA"	"KAGOSHIMA BAY"	31.583	130.567	9.782398027035004											1			15	1						1				
	1782	8	22				4	3	534	7.3			"n"	"JAPAN"	"CHIBA"	"BOSO PENINSULA"	35.3	140.4	67.49704129936065											1				3										
	1782	8	22				4	3	534	7.3			"n"	"JAPAN"	"IWATE"	"RIKUCHU"	39.47	141.9	522.7142009204038											1				3										
	1782	8	22				4	3	534	7.3			"n"	"JAPAN"	"KANAGAWA"	"KANAGAWA PREFECTURE"	35.32	139.4	36.63218163395529											1														
	1789						2	0	553				"n"	"JAPAN"	"MIYAGI"	"RIKUZEN"	38.3833	141.105	43.5293003007848									0.6		1														
	1791	5	13				2	0	557				"n"	"JAPAN"	"OKINAWA"	"OKINAWA"	26.167	127.833	773.0977389734111									1.5		1														
	1791	5	13				2	0	557				"n"	"JAPAN"	"OKINAWA"	"RYUKYU ISLAND, NAHA"	26.22	127.75	770.0377004621721									11		1														
	1791	5	13				2	0	557				"n"	"JAPAN"	"OKINAWA"	"RYUKYU ISLAND, OSATO"	26	126	861.3285551045976									11		1														
	1791	5	13				2	0	557				"n"	"JAPAN"	"OKINAWA"	"YONABARU PORT"	26.2	127.77	771.5266237982419									11		1														
	1791	9	13				3	1	558	6.5			"n"	"JAPAN"	"TOTTORI"	"SAKAI"	34.6	135.5	14.39808658286848											1				1						1				
	1792	5	21				4	5	568	6.4	932		"n"	"JAPAN"		"ARITA, SHIMABARA PENINSULA"												5		1														
	1792	5	21				4	5	568	6.4	932		"n"	"JAPAN"	"NAGASAKI"	"DOSAKI"	32.68	130.32	7.986196032328302									5		1														
	1792	5	21				4	5	568	6.4	932		"n"	"JAPAN"		"FUKAE"												5		1														
	1792	5	21				4	5	568	6.4	932		"n"	"JAPAN"	"KUMAMOTO"	"FUNATSU"												6		1														
	1792	5	21				4	5	568	6.4	932		"n"	"JAPAN"	"NAGASAKI"	"FUTSU"	32.7	130.3	5.544978753011275									55		4				3										
	1792	5	21				4	5	568	6.4	932		"n"	"JAPAN"		"HIGASHIKANGA"												6.5		1														
	1792	5	21				4	5	568	6.4	932		"n"	"JAPAN"	"NAGASAKI"	"KITA-ARIMA"	32.65	130.25	12.040238822549197									4		1														
	1792	5	21				4	5	568	6.4	932		"n"	"JAPAN"	"NAGASAKI"	"KOJIRO"												2		1														
	1792	5	21				4	5	568	6.4	932		"n"	"JAPAN"		"MACHI-MURA, SHIMABARA PENINSULA"												5		1														
	1792	5	21				4	5	568	6.4	932		"n"	"JAPAN"	"NAGASAKI"	"MIE, SHIMABARA"	32.8	130.35	7.258903098999695									11		1														
	1792	5	21				4	5	568	6.4	932		"n"	"JAPAN"		"MINAMI-ARIMA"												2		1														
	1792	5	21				4	5	568	6.4	932		"n"	"JAPAN"	"KUMAMOTO"	"MISUMI"												3		1														
	1792	5	21				4	5	568	6.4	932		"n"	"JAPAN"	"NAGASAKI"	"MORIYAMA, SHIMABARA PENINSULA"	32.85	130.14	18.64336020236872									2		1														
	1792	5	21				4	5	568	6.4	932		"n"	"JAPAN"	"KUMAMOTO"	"NAGASU"	32.93	130.45	24.407067153115904									5.7		4										2		3		
	1792	5	21				4	5	568	6.4	932		"n"	"JAPAN"	"KUMAMOTO"	"NICHO"												6		1														
	1792	5	21				4	5	568	6.4	932		"n"	"JAPAN"		"NISHI-ARIE"												5		1														
	1792	5	21				4	5	568	6.4	932		"n"	"JAPAN"		"OE, SHIMABARA PENINSULA"												5		1														
	1792	5	21				4	5	568	6.4	932		"n"	"JAPAN"		"ONO, SHIMABARA PENINSULA"												7.5		1														
	1792	5	21				4	5	568	6.4	932		"n"	"JAPAN"		"SAN-NOSAWA"												7		1														
	1792	5	21				4	5	568	6.4	932		"n"	"JAPAN"	"NAGASAKI"	"SHIMABARA"	32.77	130.37	6.924231803929467											1				4			707	3		3	380	2		
	1792	5	21				4	5	568	6.4	932		"n"	"JAPAN"		"SUGITANI"												10		1														
	1792	5	21				4	5	568	6.4	932		"n"	"JAPAN"		"SUMITA"												11		1														
	1792	5	21				4	5	568	6.4	932		"n"	"JAPAN"	"NAGASAKI"	"TAIRA"	32.872	130.308	13.550662045827707									2		1														
	1792	5	21				4	5	568	6.4	932		"n"	"JAPAN"	"NAGASAKI"	"YUE"												3		1														
	1792	5	21				4	5	568	6.4	932		"n"	"JAPAN"	"KUMAMOTO"	"UTO"	32.683	130.667	35.19973202777118											1			4000	4										
	1792	5	21				4	5	568	6.4	932		"n"	"JAPAN"	"KUMAMOTO"	"TAMANA"	32.917	130.567	31.111861278922753											1				4										
	1792	5	21				4	5	568	6.4	932		"n"	"JAPAN"	"KUMAMOTO"	"ASHIKITA"	32.35	130.52	48.93524786630174											1			1000	3										
	1792	5	21				4	5	568	6.4	932		"n"	"JAPAN"	"NAGASAKI"	"AMAKUSA ISLANDS"	32.5	130.2	29.269722051805253									15		1			343	3						3				
	1792	5	21				4	5	568	6.4	932		"n"	"JAPAN"	"KUMAMOTO"	"OOTAO (OHTAO), MISUMI"	32.61	130.46	21.59256413521175									22.5		4														
	1792	5	21				4	5	568	6.4	932		"n"	"JAPAN"	"KUMAMOTO"	"UMEDO (UMEDOO)"	32.8	130.61	29.56838142619369									14.9		4														
	1792	5	21				4	5	568	6.4	932		"n"	"JAPAN"	"KUMAMOTO"	"KYODOMARI, YOKOSHIMA"	32.9	130.5	25.04889053744346									9.6		4														
	1792	5	21				4	5	568	6.4	932		"n"	"JAPAN"	"KUMAMOTO"	"SEIGENJI, NAGASU"	32.92	130.47	24.673498569336562									8.6		4														
	1792	5	21				4	5	568	6.4	932		"n"	"JAPAN"	"KUMAMOTO"	"TACHIBANA, TENSUI"	32.81	130.6	28.882267955515708									4.5		4														
	1792	5	21				4	5	568	6.4	932		"n"	"JAPAN"	"KUMAMOTO"	"KAWACHI, KUMAMOTO"	32.83	130.59	28.57751724186237									23.4		4														
	1792	5	21				4	5	568	6.4	932		"n"	"JAPAN"	"KUMAMOTO"	"SHIOYA"	32.815	130.595	28.56078880008654									14.7		4														
	1792	5	21				4	5	568	6.4	932		"n"	"JAPAN"	"KUMAMOTO"	"CHIKOOZU"	32.8	130.61	29.56838142619369									16.5		4														
	1792	5	21				4	5	568	6.4	932		"n"	"JAPAN"	"KUMAMOTO"	"NARAZAKI, KUMAMOTO"												4.7		4														
	1792	5	21				4	5	568	6.4	932		"n"	"JAPAN"	"KUMAMOTO"	"TAKAHASHI, KUMAMOTO"	32.78	130.65	32.96337211045386									3.6		4														
	1792	5	21				4	5	568	6.4	932		"n"	"JAPAN"	"KUMAMOTO"	"OJIMA, KUMAMOTO"												4.6		4														
	1792	5	21				4	5	568	6.4	932		"n"	"JAPAN"	"KUMAMOTO"	"KAWAJIRI, KUMAMOTO"												3.7		4														
	1792	5	21				4	5	568	6.4	932		"n"	"JAPAN"	"KUMAMOTO"	"SHIRATO, OOYANO ISLAND"	32.61	130.43	19.741081138596016									9.9		4														
	1792	5	21				4	5	568	6.4	932		"n"	"JAPAN"	"KUMAMOTO"	"OOTEBARU, OOYANO ISLAND"	32.6	130.41	19.574595801470338									18		4														
	1792	5	21				4	5	568	6.4	932		"n"	"JAPAN"	"KUMAMOTO"	"OSHIMAGO, ARIAKE"	32.47	130.25	31.40396665352575									12.3		4														
	1792	6	13				4	1	569	6.9			"n"	"JAPAN"	"HOKKAIDO"	"SHAKOTAN"	43.299	140.601	22.331352223347352											1				2										
	1792	6	13				4	1	569	6.9			"n"	"JAPAN"	"HOKKAIDO"	"TAKASHIMA"	43.0333	143.4667	238.43222665374248											1														
	1792	6	13				4	1	569	6.9			"n"	"JAPAN"	"HOKKAIDO"	"BIKUNI"	43.29	140.601	23.331232232661996											1				2										
	1792	6	13				4	1	569	6.9			"n"	"JAPAN"	"HOKKAIDO"	"OSHORO"	43.2	140.867	39.742774546883126											1			5	1						1				
	1792	6	13				4	1	569	6.9			"n"	"JAPAN"	"HOKKAIDO"	"FURUBIRA"	43.267	140.633	26.024096985901366											1														
	1792	6	13				4	1	569	6.9			"n"	"JAPAN"	"HOKKAIDO"	"OKAMUI"														1														
	1792	8	29				-1	0	571				"n"	"JAPAN"	"MIE"	"FUTAMI-SUKU"	34.5	136.78	7.3471983207827085											1														
	1793	2	8	3			4	1	572	6.9			"n"	"JAPAN"	"AOMORI"	"AJIGASAWA"	40.76	140.2	23.34345213063694											1				1										
	1793	2	8	3			4	1	572	6.9			"n"	"JAPAN"	"AOMORI"	"NISHITSUGARU"														1				1										
	1793	2	8	3			4	1	572	6.9			"n"	"JAPAN"	"AOMORI"	"KANAISHAWA"												1.8		1														
	1793	2	8	3			4	1	572	6.9			"n"	"JAPAN"	"AOMORI"	"MAIDO"														1				1						1				
	1793	2	8	3			4	1	572	6.9			"n"	"JAPAN"	"AOMORI"	"NANATSUISHI (AJIGASAWA)"	40.78	140.21	23.27281456089158											1										1		1		
	1793	2	17				4	1	573	8.3			"n"	"JAPAN"	"IWATE"	"OFUNATO"	39.017	141.75	203.81104768122603									3		1														
	1793	2	17				4	1	573	8.3			"n"	"JAPAN"	"IWATE"	"RYOISHI"	39.3	141.9	202.6589968611415									4.5		1														
	1793	2	17				4	1	573	8.3			"n"	"JAPAN"	"IWATE"	"OTSUCHI"	39.35	141.917	203.7874318865146									2.5		1			13	1						1	17	1		
	1793	2	17				4	1	573	8.3			"n"	"JAPAN"	"MIYAGI"	"OKACHI"	38.517	141.467	220.93570835859853									2.5		1														
	1793	2	17				4	1	573	8.3			"n"	"JAPAN"	"MIYAGI"	"KESENNUMA"	38.9	141.57	215.99425320237495											1														
	1793	2	17				4	1	573	8.3			"n"	"JAPAN"	"AOMORI"	"HACHINOHE"	40.533	141.533	309.7343257054777											1														
	1793	2	17				4	1	573	8.3			"n"	"JAPAN"	"IWATE"	"YAMADA"	39.467	141.95	207.53697560224572									3.5		1														
	1793	2	17				4	1	573	8.3			"n"	"JAPAN"	"IWATE"	"KAMAISHI"	39.27	141.883	202.5929026164736											1														
	1799	6	29				4	1	583	6.4			"n"	"JAPAN"	"ISHIKAWA"	"KANAZAWA CASTLE"	36.564317	136.659228	6.616405911710951											1				3						2				2
	1799	6	29				4	1	583	6.4			"n"	"JAPAN"	"ISHIKAWA"	"KANAI"	36.6	136.583	1.521087930424986											1				3										
	1802	12	9	5			4	1	588	6.6			"n"	"JAPAN"	"NIIGATA"	"OGI"	37.28	137.25	103.9015160229851											1														
	1804	7	10	13			4	1	593	7.3			"n"	"JAPAN"	"AKITA"	"KISAGATA"	39.2167	139.9	19.004945813986524									1		1										2				2
	1804	7	10	13			4	1	593	7.3			"n"	"JAPAN"	"YAMAGATA"	"SAKATA"	38.917	139.85	17.119632503302434									1		1										2			300	3
	1808	8	8				4	1	599	6.5			"n"	"JAPAN"	"TOKUSHIMA"	"NAKA RIVER"	33.94	134.67	12.813914693461859									1.5		1														
	1808	12	4				1	0	600				"n"	"JAPAN"	"MIE"	"KUMANO"	33.885	136.1												1														
	1810	9	25				4	1	603	6.6			"n"	"JAPAN"	"AKITA"	"OGA"	39.9	139.9	0									1		1														
	1816	12	20				-1	8	618				"n"	"JAPAN"	"SHIZUOKA"	"MATSUZAKI"	34.755	138.783												1														
	1826	1					3	1	5445				"n"	"JAPAN"	"BONIN IS, TOKYO"	"FUTAMI BAY, CHICHIJIMA ISLAND"	27.0939	142.195	3.037519789880775									6		1										1				
	1828	5	26				4	1	667	6.4			"n"	"JAPAN"	"KUMAMOTO"	"AMAKUSA ISLANDS"	32.6	129.9	0											1														
	1828	5	26				4	1	667	6.4			"n"	"JAPAN"	"NAGASAKI"	"NAGASAKI"	32.733	129.867	15.070835008524831											1														
	1833	12	7				4	1	682	7.4			"n"	"JAPAN"	"YAMAGATA"	"KAMO"	38.75	139.733	53.29540284209213									9		1			15	1						1	8	1		
	1833	12	7				4	1	682	7.4			"n"	"JAPAN"	"AKITA"	"KISAKATA"	39.217	139.9	73.84146123527395											1			5	1						1	16	1		
	1833	12	7				4	1	682	7.4			"n"	"JAPAN"	"NIIGATA"	"NIIGATA COAST"	37.95	139.03	105.97362710948927											1			23	1						2	150	3		
	1833	12	7				4	1	682	7.4			"n"	"JAPAN"	"NIIGATA"	"SADO ISLAND"	38	138.5	114.89207135947213											1										1	123	1		
	1833	12	7				4	1	682	7.4			"n"	"JAPAN"	"YAMAGATA"	"SHONAI"	38.854	139.89	64.41692610161657											1										1				
	1833	12	7				4	1	682	7.4			"n"	"JAPAN"	"HOKKAIDO"	"HAKODATE"	41.783	140.733	347.221576808864											1										1				
	1833	12	7				4	1	682	7.4			"n"	"JAPAN"	"HOKKAIDO"	"MATSUMAE"	41.417	140.1	290.9595417770069									1.2		1														
	1833	12	7				4	1	682	7.4			"n"	"JAPAN"	"ISHIKAWA"	"WAJIMA"	37.4	136.9	258.0878270731707											1										1				
	1833	12	7				4	1	682	7.4			"n"	"JAPAN"	"YAMAGATA"	"SAKATA"	38.917	139.85	60.74567876424526											1										2				
	1833	12	7				4	1	682	7.4			"n"	"JAPAN"		"OMACHI"														1										2	50	1		
	1833	12	7				4	1	682	7.4			"n"	"JAPAN"		"NAKAGAWAKUMI"														1										2				
	1833	12	7				4	1	682	7.4			"n"	"JAPAN"	"AOMORI"	"AOMORI PREFECTURE"	40.9	140.3	242.86175891560927											1														
	1833	12	7				4	1	682	7.4			"n"	"JAPAN"	"IWATE"	"IMAIZUMI"	39	141.617	214.13901130593035											1				1						1		1		1
	1833	12	7				4	1	682	7.4			"n"	"JAPAN"	"ISHIKAWA"	"KANAZAWA"	36.617	136.6	338.64352754187564											1				1						1		1		1
	1833	12	7				4	1	682	7.4			"n"	"JAPAN"	"YAMAGATA"	"MIYAZAWA"	38.776	139.75	53.88207653928289											1				1						1		1		1
	1833	12	7				4	1	682	7.4			"n"	"JAPAN"	"YAMAGATA"	"ABURATO"	38.75	139.717	51.97735333139306											1				1						1		1		1
	1833	12	7				4	1	682	7.4			"n"	"JAPAN"	"YAMAGATA"	"YURA"	38.7167	139.6833	50.59444193593197											1				1						1		1		1
	1833	12	7				4	1	682	7.4			"n"	"JAPAN"	"YAMAGATA"	"KOBATAO"	38.7	139.654	49.08999269680608											1				1						1		1		1
	1833	12	7				4	1	682	7.4			"n"	"JAPAN"	"YAMAGATA"	"KATAARASAWA"														1				1						1		1		1
	1833	12	7				4	1	682	7.4			"n"	"JAPAN"	"YAMAGATA"	"IKAGAWA"														1				1						1		1		1
	1833	12	7				4	1	682	7.4			"n"	"JAPAN"	"YAMAGATA"	"YUATSUMI"	38.615	139.603	50.51114013898164											1				1						1		1		1
	1833	12	7				4	1	682	7.4			"n"	"JAPAN"	"YAMAGATA"	"OIWAGAWA"	38.605	139.575	49.369028901352955											1				1						1		1		1
	1833	12	7				4	1	682	7.4			"n"	"JAPAN"	"YAMAGATA"	"NEZUGASEKI"	38.567	139.55	50.755961976204915											1														
	1833	12	7				4	1	682	7.4			"n"	"JAPAN"	"NIIGATA"	"TANOURA, SADO ISLAND"	37.835	138.23	142.96635038537653											1														
	1833	12	7				4	1	682	7.4			"n"	"JAPAN"	"NIIGATA"	"OGI, SADO ISLAND"	37.81	138.267	143.51210912158936											1														
	1833	12	7				4	1	682	7.4			"n"	"JAPAN"	"NIIGATA"	"TAKACHI, SADO ISLAND"	38.197	138.334	105.5924151995157											1										1				1
	1833	12	7				4	1	682	7.4			"n"	"JAPAN"	"NIIGATA"	"MASARAGAWA, SADO ISLAND"	38.29	138.44	91.71181799431625											1										1				1
	1834	2	9	1			4	1	684	6.4			"n"	"JAPAN"	"HOKKAIDO"	"ISHIKARI"	43.25	141.38	5.787297164814386											1										1	50	1	50	1
	1835	7	20				4	1	691	7.6			"n"	"JAPAN"	"IWATE"	"RYORI"	39.03	141.87	125.46331180303025									2.5		1				3						3		3		
	1835	7	20				4	1	691	7.6			"n"	"JAPAN"	"MIYAGI"	"SENDAI"	38.267	141.033	86.28515120709484											1				3						3		3		
	1835	7	20				4	1	691	7.6			"n"	"JAPAN"	"IWATE"	"TAKADA"	39.0167	141.6333	126.12606827919547									2		1				3						3		3		
	1835	7	20				4	1	691	7.6			"n"	"JAPAN"	"MIYAGI"	"NOBIRU"	38.367	141.167	82.56416243792982									5		1				3						3		3		
	1835	8	19				-1	1	692				"n"	"JAPAN"	"MIYAGI"	"SENDAI"	38.267	141.033												1														
	1835	8	19				-1	1	692				"n"	"JAPAN"	"HOKKAIDO"	"HANASAKI"	43.283	145.57												1											51	2		
	1836	9	5				-1	1	700	5.9			"n"	"JAPAN"	"MIYAGI"	"SENDAI"	38.267	141.033	105.72405428991883											1														
	1837	11	7	12	51		4	1	708	8.5			"n"	"JAPAN"	"MIYAGI"	"OJIKA"	38.271389	141.523611	16992.110526378066											1														
	1837	11	7	12	51		4	1	708	8.5			"n"	"JAPAN"	"MIYAGI"	"KESEN"	38.9	141.583	17010.738583041675											1														
	1837	11	7	12	51		4	1	708	8.5			"n"	"JAPAN"	"MIYAGI"	"MOTOYOSHI"	38.8	141.5	17013.89499227736											1														
	1839	5	1				1	1	713	7.3			"y"	"JAPAN"	"HOKKAIDO"	"KUSHIRO"	42.967	144.367	73.33772293741744											1														
	1843	4	25				4	1	732	8.4			"n"	"JAPAN"	"HOKKAIDO"	"SHINRYU"	43.05	144.85	150.10633790885856											1			45	1						2		3		
	1843	4	25				4	1	732	8.4			"n"	"JAPAN"	"HOKKAIDO"	"AKKESHI"	43.0356	144.8525	148.74334669195343									4.5		1				1						2		3		
	1843	4	25				4	1	732	8.4			"n"	"JAPAN"	"AOMORI"	"HACHINOHE"	40.533	141.533	408.1652000140557									3		1														
	1843	4	25				4	1	732	8.4			"n"	"JAPAN"	"HOKKAIDO"	"HAKODATE"	41.783	140.733	437.71002835843376									1		1														
	1843	4	25				4	1	732	8.4			"n"	"JAPAN"	"HOKKAIDO"	"HANASAKI"	43.283	145.567	146.87992650532073									3		1														
	1843	4	25				4	1	732	8.4			"n"	"JAPAN"	"HOKKAIDO"	"SHIRANUKA"	42.95	144.08	189.89688680117428									3.5		1														
	1843	4	25				4	1	732	8.4			"n"	"JAPAN"	"HOKKAIDO"	"KUSHIRO"	42.967	144.367	171.94118351718012									4.5		1														
	1845	9					-1	1	746				"n"	"JAPAN"	"NAGASAKI"	"NAGASAKI"	32.74	129.87												1														
	1846	3					4	1	750	6.9			"n"	"JAPAN"	"IWATE"	"RIKUCHU"	39.417	141.95	48.224039564333175									2	200	1														
	1846	3					4	1	750	6.9			"n"	"JAPAN"	"IWATE"	"KUWAGASAKI"	39.65	141.9667	48.75413403884457									1.8	200	1														
	1847	8	27				1	9	754				"n"	"JAPAN"	"MIYAGI"	"MOTOYOSHI"	38.8	141.5												1														
	1847	8	27				1	9	754				"n"	"JAPAN"	"MIYAGI"	"MONOO"	38.42	141.3												1														
	1847	8	27				1	9	754				"n"	"JAPAN"	"MIYAGI"	"OJIKA"	38.271389	141.523611												1														
	1847	8	27				1	9	754				"n"	"JAPAN"	"IWATE"	"KESEN"	39.18	141.9												1														
	1853	10	3				2	1	5475				"n"	"JAPAN"	"OKINAWA"	"OKINAWA ISLAND"	26.217	127.667	6.955847821162834											1														
	1854	12	23	0	46		4	1	835	8.3			"n"	"JAPAN"	"BONIN IS, TOKYO"	"FUTAMI BAY, CHICHIJIMA ISLAND"	27.0939	142.195	869.2429652482908									4.5		1										2		2		
	1854	12	23	0	46		4	1	835	8.3			"n"	"JAPAN"	"AICHI"	"CHITA BAY"	35.02	136.84	149.25523600960213									1.5		1										1				
	1854	12	23	0	46		4	1	835	8.3			"n"	"JAPAN"	"GIFU"	"HONGO"	35.7	136.48	228.97491447250425											1										1	67	2		
	1854	12	23	0	46		4	1	835	8.3			"n"	"JAPAN"	"SHIZUOKA"	"KAKETSUKA"	34.667	137.8	74.5593012617155											1										1				
	1854	12	23	0	46		4	1	835	8.3			"n"	"JAPAN"	"SHIZUOKA"	"KAKISAKI"	34.67	138.97	123.361972706331											1										1	111	3		
	1854	12	23	0	46		4	1	835	8.3			"n"	"JAPAN"	"SHIZUOKA"	"KAWASAKI"	34.733	138.217	86.3813004215268									5		1														
	1854	12	23	0	46		4	1	835	8.3			"n"	"JAPAN"	"SHIZUOKA"	"KEGA"	34.8	137.65	91.67248590775567											1										2				
	1854	12	23	0	46		4	1	835	8.3			"n"	"JAPAN"	"KOCHI"	"TEI PORT"	33.517	133.75	388.1646072160291									0.9		1														
	1854	12	23	0	46		4	1	835	8.3			"n"	"JAPAN"	"MIE"	"KOGA"	34.88	139.08	145.91044420664025									10.5	2000	1			11	1						2	267	3		
	1854	12	23	0	46		4	1	835	8.3			"n"	"JAPAN"	"MIE"	"KOSHIKA"	34.25	136.8	105.19451398044383											1			7	1						1	70	2		
	1854	12	23	0	46		4	1	835	8.3			"n"	"JAPAN"	"MIE"	"KOWA BAY"	34.25	136.467	135.06923402267256											1			6	1						2	230	3		
	1854	12	23	0	46		4	1	835	8.3			"n"	"JAPAN"	"WAKAYAMA"	"KOZA"	33.517	135.833	198.84636717775183											1										1	61	2		
	1854	12	23	0	46		4	1	835	8.3			"n"	"JAPAN"	"SHIZUOKA"	"MAISAKA"	34.683	137.617	80.11409466693918									5		1										2				
	1854	12	23	0	46		4	1	835	8.3			"n"	"JAPAN"	"SHIZUOKA"	"TSUBOICHO"	34.68	137.64	79.13428762281572											1														
	1854	12	23	0	46		4	1	835	8.3			"n"	"JAPAN"	"MIE"	"MATSUZAKA"	34.58	136.53	141.59435720918844											1														
	1854	12	23	0	46		4	1	835	8.3			"n"	"JAPAN"	"KANAGAWA"	"MI'URA"	35.14	139.619	202.1696194108703											1			5	1										
	1854	12	23	0	46		4	1	835	8.3			"n"	"JAPAN"	"MIE"	"NAGASHIMA"	34.2	136.333	146.2874845301001									10		1										2	450	3		
	1854	12	23	0	46		4	1	835	8.3			"n"	"JAPAN"	"KYOTO"	"NAKA"	34.83	135.93	203.16245891121423											1										1	12	1		
	1854	12	23	0	46		4	1	835	8.3			"n"	"JAPAN"	"MIE"	"NIGO"	34.2	136.333	146.2874845301001											1			18	1										
	1854	12	23	0	46		4	1	835	8.3			"n"	"JAPAN"	"MIE"	"NIKISHIMA"	33.933	136.183	158.8589767387094											1										2		2		
	1854	12	23	0	46		4	1	835	8.3			"n"	"JAPAN"	"MIE"	"NISHIKI BAY"	34.217	136.4	140.4769008527621											1										1	40	1		
	1854	12	23	0	46		4	1	835	8.3			"n"	"JAPAN"	"OSAKA"	"OSAKA"	34.667	135.5	232.90979131627952									3		1										1				
	1854	12	23	0	46		4	1	835	8.3			"n"	"JAPAN"	"SHIZUOKA"	"OKAGATA"	37.883	139.167	445.74453162288137									5.7		1										1	112	3		
	1854	12	23	0	46		4	1	835	8.3			"n"	"JAPAN"	"IZU-OSHIMA, TOKYO"	"OSHIMA ISLAND"	34.79	139.39	162.63843845325076											1										1				
	1854	12	23	0	46		4	1	835	8.3			"n"	"JAPAN"	"SHIZUOKA"	"SHIMIZU PORT"	35.017	138.483	124.87524635223494											1										1				
	1854	12	23	0	46		4	1	835	8.3			"n"	"JAPAN"	"SHIZUOKA"	"SHIMODA"	34.667	138.95	121.69689755173864									10		1			85	2						3	816	3		
	1854	12	23	0	46		4	1	835	8.3			"n"	"JAPAN"	"SHIZUOKA"	"SAGARA"	34.683	138.2	80.636076829478									5		1														
	1854	12	23	0	46		4	1	835	8.3			"n"	"JAPAN"	"MIE"	"TOBA"	34.483	136.817	113.24362652300172									21		1			74	2										
	1854	12	23	0	46		4	1	835	8.3			"n"	"JAPAN"	"MIE"	"TSU"	34.717	136.517	150.04137518407381											1			4	1			5	1		2	215	3		
	1854	12	23	0	46		4	1	835	8.3			"n"	"JAPAN"	"MIE"	"WAGU"	34.5	136.9	107.52139776404414											1			44	1						2	270	3		
	1854	12	23	0	46		4	1	835	8.3			"n"	"JAPAN"	"AICHI"	"YOSHIDA"	34.8	137.067	117.22548706691927											1										1				
	1854	12	23	0	46		4	1	835	8.3			"n"	"JAPAN"	"KOCHI"	"SUSAKI"	33.367	133.283	433.7947693770552									3		1														
	1854	12	23	0	46		4	1	835	8.3			"n"	"JAPAN"	"KOCHI"	"KURE"	33.333	133.25	437.51892026916386											1														
	1854	12	23	0	46		4	1	835	8.3			"n"	"JAPAN"	"WAKAYAMA"	"TANABE"	33.733	135.367	236.2334270484272									2.7		1														
	1854	12	23	0	46		4	1	835	8.3			"n"	"JAPAN"	"WAKAYAMA"	"TEMMA"	33.633	135.933	186.6014806408696											1										2				
	1854	12	23	0	46		4	1	835	8.3			"n"	"JAPAN"	"WAKAYAMA"	"SHINGU"	33.717	136	178.59888637819765											1										1				
	1854	12	23	0	46		4	1	835	8.3			"n"	"JAPAN"	"MIE"	"ATASHIKA"	33.917	136.15	162.01175603484086											1										1				
	1854	12	23	0	46		4	1	835	8.3			"n"	"JAPAN"	"MIE"	"ODOMARI"	33.9	136.117	165.18922793324305											1										1				
	1854	12	23	0	46		4	1	835	8.3			"n"	"JAPAN"	"SHIMANE"	"HAMADA"	34.89	132.08	543.8099627490401									6		1										1				
	1854	12	23	0	46		4	1	835	8.3			"n"	"JAPAN"	"AICHI"	"NARUMI"	35.083	136.95	148.4505994329567											1														
	1854	12	23	0	46		4	1	835	8.3			"n"	"JAPAN"	"AICHI"	"KIRA"	34.79	137.07	116.20958097643444											1														
	1854	12	23	0	46		4	1	835	8.3			"n"	"JAPAN"	"SHIGA"	"TAKASHIMA"	35.37	136.04	228.35310133104917											1										1				
	1854	12	23	0	46		4	1	835	8.3			"n"	"JAPAN"	"AICHI"	"AINOKISHIMA"														1										1				
	1854	12	23	0	46		4	1	835	8.3			"n"	"JAPAN"	"AICHI"	"TOYOHASHI"	34.767	137.383	97.4665864009929											1			14	1						1	4	1		
	1854	12	23	0	46		4	1	835	8.3			"n"	"JAPAN"	"SHIZUOKA"	"HARA"	35.117	138.8	148.91603828129817											1														
	1854	12	23	0	46		4	1	835	8.3			"n"	"JAPAN"	"SHIZUOKA"	"SEIKENJI"	35.05	138.517	129.52239727672648											1										1				
	1854	12	23	0	46		4	1	835	8.3			"n"	"JAPAN"	"TOKYO"	"TOKYO BAY"	35.65	139.8	252.41249814964834									3		1										1				
	1854	12	23	0	46		4	1	835	8.3			"n"	"JAPAN"	"AICHI"	"ATSUMI"	34.67	137.2	98.35065773430092											1														
	1854	12	23	0	46		4	1	835	8.3			"n"	"JAPAN"	"KANAGAWA"	"ENOSHIMA ISLAND"	35.31	139.48	205.1693287149144											1														
	1854	12	23	0	46		4	1	835	8.3			"n"	"JAPAN"	"MIE"	"FUNAKOSHI"	34.25	136.846	101.10740515324406											1														
	1854	12	23	0	46		4	1	835	8.3			"n"	"JAPAN"	"MIE"	"FUSEDA"	34.25	136.846	101.10740515324406											1														
	1854	12	23	0	46		4	1	835	8.3			"n"	"JAPAN"	"MIE"	"GOZA"	34.25	136.846	101.10740515324406											1														
	1854	12	23	0	46		4	1	835	8.3			"n"	"JAPAN"	"MIE"	"HAMAJIMA"	34.3	136.83	104.13705491123487											1														
	1854	12	23	0	46		4	1	835	8.3			"n"	"JAPAN"	"AICHI"	"HAZU"	34.783	137.132	111.94580958777293											1														
	1854	12	23	0	46		4	1	835	8.3			"n"	"JAPAN"	"AICHI"	"HOI"	34.74	137.32	97.90022430390991											1														
	1854	12	23	0	46		4	1	835	8.3			"n"	"JAPAN"	"AICHI"	"JOTO"	34.74	137.32	97.90022430390991											1														
	1854	12	23	0	46		4	1	835	8.3			"n"	"JAPAN"	"AICHI"	"KAMO"	34.74	137.32	97.90022430390991											1														
	1854	12	23	0	46		4	1	835	8.3			"n"	"JAPAN"	"AICHI"	"KANNON TEMPLE"	35.16	136.9	158.04049234631668											1														
	1854	12	23	0	46		4	1	835	8.3			"n"	"JAPAN"	"KOCHI"	"KASHIWAJIMA"	32.77	132.64	508.00431912711167											1														
	1854	12	23	0	46		4	1	835	8.3			"n"	"JAPAN"	"MIE"	"KATADA"	34.25	136.846	101.10740515324406											1														
	1854	12	23	0	46		4	1	835	8.3			"n"	"JAPAN"	"MIE"	"NAKIRI"	34.25	136.846	101.10740515324406											1														
	1854	12	23	0	46		4	1	835	8.3			"n"	"JAPAN"	"AICHI"	"NUKATA"	34.74	137.32	97.90022430390991											1														
	1854	12	23	0	46		4	1	835	8.3			"n"	"JAPAN"	"AICHI"	"SHIKUCHI"	34.74	137.32	97.90022430390991											1														
	1854	12	23	0	46		4	1	835	8.3			"n"	"JAPAN"	"AICHI"	"YANA"	34.74	137.32	97.90022430390991											1														
	1854	12	23	0	46		4	1	835	8.3			"n"	"JAPAN"	"MIE"	"KOFUNATO"	34.33	136.87	101.78157359648108											1														
	1854	12	23	0	46		4	1	835	8.3			"n"	"JAPAN"	"MIE"	"KAINO"	34.18	136.317	147.44720675057016											1														
	1854	12	23	0	46		4	1	835	8.3			"n"	"JAPAN"	"OSAKA"	"TARUKISHI"	34.37	135.27	245.88581123954236											1														
	1854	12	23	0	46		4	1	835	8.3			"n"	"JAPAN"	"KOCHI"	"KUSHIMOTO"	33.54	133.74	388.6881869600841									0.9		1														
	1854	12	24	8	0		4	1	837	8.4			"n"	"JAPAN"	"KOCHI"	"USA BAY"	33.45	133.45	149.52627015111273									8.5		1														
	1854	12	24	8	0		4	1	837	8.4			"n"	"JAPAN"	"EHIME"	"DOI"	33.95	133.43	173.6605411134289									5		1			13	1			22	1		1	2	1	56	2
	1854	12	24	8	0		4	1	837	8.4			"n"	"JAPAN"	"SHIZUOKA"	"KOURA"	34.667	138.783	390.7127721679032									6.1		1										1			100	2
	1854	12	24	8	0		4	1	837	8.4			"n"	"JAPAN"	"KOCHI"	"KOCHI PREFECTURE"	33.59	133.55	145.50546055232044									28		1			111	3	53	2				3			2947	4
	1854	12	24	8	0		4	1	837	8.4			"n"	"JAPAN"	"KUMAMOTO"	"KYUSHU"	33	131	373.7437768854092											1														
	1854	12	24	8	0		4	1	837	8.4			"n"	"JAPAN"	"SHIZUOKA"	"MAISAKA"	34.683	137.617	299.03278067763705											1			14	1										
	1854	12	24	8	0		4	1	837	8.4			"n"	"JAPAN"	"CHIBA"	"MERA"	34.917	139.817	488.4119817344041									4.8		1										1	5	1	100	2
	1854	12	24	8	0		4	1	837	8.4			"n"	"JAPAN"		"NANKAIDO COAST"														1														
	1854	12	24	8	0		4	1	837	8.4			"n"	"JAPAN"	"HYOGO"	"AMAGASAKI"	34.71	135.41	182.5632475642742											1														
	1854	12	24	8	0		4	1	837	8.4			"n"	"JAPAN"	"OSAKA"	"OSAKA"	34.71	135.48	184.0167530332816											1			400	3										
	1854	12	24	8	0		4	1	837	8.4			"n"	"JAPAN"	"WAKAYAMA"	"WAKAYAMA PREFECTURE"	34.217	135.15	124.67213632345924											1			5	1										
	1854	12	24	8	0		4	1	837	8.4			"n"	"JAPAN"	"KOCHI"	"USA"	33.452	133.45	149.58241626423424									8.5		1			15	1						2			784	3
	1854	12	24	8	0		4	1	837	8.4			"n"	"JAPAN"	"KOCHI"	"SUSAKI"	33.41	133.3	162.0979280170884											1			50	1						2			846	3
	1854	12	24	8	0		4	1	837	8.4			"n"	"JAPAN"	"TOKUSHIMA"	"YUKI"	33.77	134.59	83.52100273730682											1			30	1						2			386	3
	1854	12	24	8	0		4	1	837	8.4			"n"	"JAPAN"	"AICHI"	"ATSUTA"	35.1275	136.90833	285.60486284552616											1														
	1854	12	24	8	0		4	1	837	8.4			"n"	"JAPAN"	"AICHI"	"NAGOYA"	35.1	136.89	282.1785324545636											1														
	1854	12	24	8	0		4	1	837	8.4			"n"	"JAPAN"	"MIE"	"YOKKAICHIKO"	34.96	136.64	255.9311963732024											1														
	1854	12	24	8	0		4	1	837	8.4			"n"	"JAPAN"	"WAKAYAMA"	"TANABE"	33.76	135.38	81.28556653119477											1			5	1										
	1854	12	24	8	0		4	1	837	8.4			"n"	"JAPAN"	"WAKAYAMA"	"HIRO"	34.03	135.17	104.35127548273702									6		1														
	1854	12	24	8	0		4	1	837	8.4			"n"	"JAPAN"	"OSAKA"	"SAKAI"	34.58	135.47	169.82632455419377											1														
	1854	12	24	8	0		4	1	837	8.4			"n"	"JAPAN"	"HYOGO"	"AKO"	34.76	134.39	192.57221420804225											1										1	11	1		
	1854	12	24	8	0		4	1	837	8.4			"n"	"JAPAN"	"KANAGAWA"	"FUKUURA"	35.35	139.65	495.7584566299067											1														
	1854	12	24	8	0		4	1	837	8.4			"n"	"JAPAN"	"AICHI"	"OKAZAKI"	34.98	137.17	289.1877407347831											1			20	1										
	1854	12	24	8	0		4	1	837	8.4			"n"	"JAPAN"	"TOKUSHIMA"	"KOMATSUSHIMA"	34.01	134.59	107.8742485505442											1										3	970	3		
	1854	12	24	8	0		4	1	837	8.4			"n"	"JAPAN"	"KAGOSHIMA"	"KATAURA"	31.42	130.18	490.8231020786543											1														
	1854	12	24	8	0		4	1	837	8.4			"n"	"JAPAN"	"KOCHI"	"TEI"	33.517	133.75	125.2581413025413											1										1			153	3
	1854	12	24	8	0		4	1	837	8.4			"n"	"JAPAN"	"KOCHI"	"TOSA-SHIMODA"	32.94	132.99	188.6320589855627											1														
	1854	12	24	8	0		4	1	837	8.4			"n"	"JAPAN"	"KOCHI"	"SHIMONOKAE"	32.87	132.95	193.29860570358306											1														
	1854	12	24	8	0		4	1	837	8.4			"n"	"JAPAN"	"KOCHI"	"KURE"	33.333	133.25	165.1743703466586									16		1			7	1						1			218	3
	1854	12	24	8	0		4	1	837	8.4			"n"	"JAPAN"	"EHIME"	"UWAJIMA"	33.24	132.56	228.11132727209323											1														
	1854	12	24	8	0		4	1	837	8.4			"n"	"JAPAN"	"EHIME"	"MITSUHAMA"	33.86	132.71	228.9183579503195											1														
	1854	12	24	8	0		4	1	837	8.4			"n"	"JAPAN"	"BONIN IS, TOKYO"	"CHICHIJIMA ISLANDS"	27.0939	142.195	960.860205935712									3.5		1														
	1854	12	24	8	0		4	1	837	8.4			"n"	"JAPAN"	"KOCHI"	"TANEZAKI"	33.5	133.56	141.26087084298177											1														
	1854	12	24	8	0		4	1	837	8.4			"n"	"JAPAN"	"KOCHI"	"MOKAWA"	33.5	133.56	141.26087084298177											1														
	1854	12	24	8	0		4	1	837	8.4			"n"	"JAPAN"	"KOCHI"	"URADO"	33.49	133.567	140.30343129433226											1														
	1854	12	24	8	0		4	1	837	8.4			"n"	"JAPAN"	"MIE"	"MATSUZAKI"	34.57	136.53	215.96177574328397									5		1										2			340	3
	1854	12	24	8	0		4	1	837	8.4			"n"	"JAPAN"	"SHIZUOKA"	"SHIMODA"	34.667	138.95	404.6040458183143	24	18	30						5.7		1														
	1854	12	24	8	0		4	1	837	8.4			"n"	"JAPAN"	"SHIZUOKA"	"KAKISAKI"	34.67	138.97	406.41176954082283									6.7		1														
	1854	12	24	8	0		4	1	837	8.4			"n"	"JAPAN"	"SHIZUOKA"	"ARAI"	34.69	137.57	295.9792845649126									3		1			14	1						1	26	1		
	1854	12	24	8	0		4	1	837	8.4			"n"	"JAPAN"	"TOKUSHIMA"	"NAKASHIMA"	33.93	134.667	97.11771402938156											1														
	1854	12	24	8	0		4	1	837	8.4			"n"	"JAPAN"	"TOKUSHIMA"	"TACHIBANA"	33.867	134.65	91.07725289208916									5.4		1										1			101	3
	1854	12	24	8	0		4	1	837	8.4			"n"	"JAPAN"	"TOKUSHIMA"	"TAINOHAMA"	33.77	134.65	81.1260943206208											1														
	1854	12	24	8	0		4	1	837	8.4			"n"	"JAPAN"	"TOKUSHIMA"	"KIKI"	33.767	134.583	83.52559402727672											1			11	1						1			200	3
	1854	12	24	8	0		4	1	837	8.4			"n"	"JAPAN"	"KANAGAWA"	"YOKOHAMA"	35.45	139.65	501.2139969310969											1			9	1										
	1854	12	24	8	0		4	1	837	8.4			"n"	"JAPAN"	"TOKUSHIMA"	"HIGASHIMUGI"	33.667	134.417	83.0502026487877											1			36	1						2			354	3
	1854	12	24	8	0		4	1	837	8.4			"n"	"JAPAN"	"TOKUSHIMA"	"ASAKAWA"	33.62	134.37	82.24524526516251											1			2	1						1			260	3
	1854	12	24	8	0		4	1	837	8.4			"n"	"JAPAN"	"TOKUSHIMA"	"SHISHIKUI"	33.567	134.317	82.01232523578881											1			8	1						2			586	3
	1854	12	24	8	0		4	1	837	8.4			"n"	"JAPAN"	"KOCHI"	"AKI GUN"	33.5	133.9	111.64142439775445											1			600	3						3			1102	4
	1854	12	24	8	0		4	1	837	8.4			"n"	"JAPAN"	"KOCHI"	"KANNOURA"	33.533	134.3	80.9631531184236											1			80	2						1			129	3
	1854	12	24	8	0		4	1	837	8.4			"n"	"JAPAN"	"KOCHI"	"AKI MATUDAJIMA"	33.5	133.9	111.64142439775445											1			17	1						1			30	1
	1854	12	24	8	0		4	1	837	8.4			"n"	"JAPAN"	"KOCHI"	"KAGAMI GUN"	33.6	133.47	152.8300128658592											1			20	1						2			846	3
	1854	12	24	8	0		4	1	837	8.4			"n"	"JAPAN"	"KOCHI"	"FUKUSHIMA"	33.44	133.435	150.60271121161813											1			91	2						1			92	2
	1854	12	24	8	0		4	1	837	8.4			"n"	"JAPAN"	"KOCHI"	"TOSA-GUN"	33.8	133.44	164.51166630381596											1			10	1						2			742	3
	1854	12	24	8	0		4	1	837	8.4			"n"	"JAPAN"	"MIE"	"NAGAOKA"	35.03	138.94	421.99110076565813											1			3	1						1			206	3
	1854	12	24	8	0		4	1	837	8.4			"n"	"JAPAN"	"KOCHI"	"AGAWA-GUN DISTRICT"	33.54	133.45	152.35236982438875											1			6	1						2			389	3
	1854	12	24	8	0		4	1	837	8.4			"n"	"JAPAN"	"KOCHI"	"URANOUCHI"	33.405	133.37	155.6126073702608											1			5	1						1			32	1
	1854	12	24	8	0		4	1	837	8.4			"n"	"JAPAN"	"KOCHI"	"TAKAOKA-GUN"	33.2	133.2	168.29429449412112											1			47	1	85	2				3			3370	4
	1854	12	24	8	0		4	1	837	8.4			"n"	"JAPAN"		"HATA-GUN"														1			63	1						3			1861	4
	1854	12	24	8	0		4	1	837	8.4			"n"	"JAPAN"	"FUKUSHIMA"	"NAKAMURA"	37.817	140.983	753.8920899775842											1			30	1						1			205	3
	1854	12	24	8	0		4	1	837	8.4			"n"	"JAPAN"	"KOCHI"	"KATSURAHAMA"	33.496	133.574	139.88653592116307											1			1	1						1		1		
	1854	12	24	8	0		4	1	837	8.4			"n"	"JAPAN"	"KOCHI"	"SHIMOJI"	33.554	133.563	142.95445274583633									0.3		1			1	1						1		1		
	1854	12	24	8	0		4	1	837	8.4			"n"	"JAPAN"	"TOKUSHIMA"	"FUKUI"	34.07	134.38	122.01442119272781											1										1			31	1
	1854	12	24	8	0		4	1	837	8.4			"n"	"JAPAN"	"TOKUSHIMA"	"ABU-URA"	33.79	134.633	83.79257639739274											1										1			44	1
	1854	12	24	8	0		4	1	837	8.4			"n"	"JAPAN"	"TOKUSHIMA"	"TAI"	33.74	134.55	82.40361313104934											1										1			15	1
	1854	12	24	8	0		4	1	837	8.4			"n"	"JAPAN"	"TOKUSHIMA"	"HIWASA"	33.73	134.53	82.42271441512672											1										1			84	2
	1854	12	24	8	0		4	1	837	8.4			"n"	"JAPAN"	"TOKUSHIMA"	"MUGI"	33.67	134.42	83.12034201740731											1										2			662	3
	1854	12	24	8	0		4	1	837	8.4			"n"	"JAPAN"	"TOKUSHIMA"	"TEBAJIMA"	33.636	134.425	79.98448478635375											1										1			56	2
	1854	12	24	8	0		4	1	837	8.4			"n"	"JAPAN"	"KOCHI"	"YASU (KONAN)"	33.54	133.75	126.20817173040851											1										1			160	3
	1854	12	24	8	0		4	1	837	8.4			"n"	"JAPAN"	"KOCHI"	"MOCHIISHI"	33.48	133.45	150.4006133284946											1										1			23	1
	1854	12	24	8	0		4	1	837	8.4			"n"	"JAPAN"	"KOCHI"	"HASUIKE"	33.49	133.41	154.279736925883											1										1			11	1
	1854	12	24	8	0		4	1	837	8.4			"n"	"JAPAN"	"KOCHI"	"HAGE"	33.47	133.4	154.58677501816481											1										1			35	1
	1854	12	24	8	0		4	1	837	8.4			"n"	"JAPAN"	"KOCHI"	"TAKAOKA"	33.32	133.1	178.8091808794768											1										2			607	3
	1854	12	24	8	0		4	1	837	8.4			"n"	"JAPAN"	"KOCHI"	"OSHIOKA"	33.405	133.3	161.98563568064526											1										1			16	1
	1854	12	24	8	0		4	1	837	8.4			"n"	"JAPAN"	"KOCHI"	"KAMINOKAE"	33.28	133.24	165.3318227890022											1										1			246	3
	1854	12	24	8	0		4	1	837	8.4			"n"	"JAPAN"	"KOCHI"	"RYU-URA"														1														
	1854	12	24	8	0		4	1	837	8.4			"n"	"JAPAN"	"KOCHI"	"OKITSU-URA"														1														
	1855	11	7				4	1	850	7			"n"	"JAPAN"	"YAMAGATA"	"ATSUMI"	34.62	137.11	46.898201113430225									3		1														
	1855	11	7				4	1	850	7			"n"	"JAPAN"	"MIE"	"ISE"	34.48	136.71	81.77717900342255									2		1														
	1855	11	7				4	1	850	7			"n"	"JAPAN"	"MIE"	"KUKI"	40.16	141.78	729.0438044821419									1.2		1														
	1855	11	7				4	1	850	7			"n"	"JAPAN"		"MAESAKA"												3		1														
	1855	11	7				4	1	850	7			"n"	"JAPAN"	"MIE"	"OWASE"	34.083	136.2	136.94245556762826									1.8		1														
	1855	11	7				4	1	850	7			"n"	"JAPAN"	"SHIZUOKA"	"SHIMODA"	34.667	138.95	125.23699885772108									1		1														
	1855	11	11				4	1	851	7			"n"	"JAPAN"	"TOKYO"	"TOKYO BAY"	35.65	139.8	0									0		1														
	1855	11	11				4	1	851	7			"n"	"JAPAN"	"CHIBA"	"KISARAZU"	35.37	139.91	32.62936155468197											7														
	1856	8	23	4	30		4	1	864	8			"n"	"JAPAN"	"AOMORI"	"HACHINOHE"	40.533	141.533	166.7341434703985									3.5		1										2		3		
	1856	8	23	4	30		4	1	864	8			"n"	"JAPAN"	"AOMORI"	"SHIZUKAWA"														1														
	1856	8	23	4	30		4	1	864	8			"n"	"JAPAN"	"HOKKAIDO"	"HAKODATE"	41.783	140.733	272.4978941256356				1	0				3		1														
	1856	8	23	4	30		4	1	864	8			"n"	"JAPAN"	"MIYAGI"	"SENDAI"	38.267	141.033	326.52453927340736											1										1				
	1856	8	23	4	30		4	1	864	8			"n"	"JAPAN"	"IWATE"	"KAMAISHI"	39.267	141.883	194.60470254916626									3		1														
	1856	8	23	4	30		4	1	864	8			"n"	"JAPAN"	"MIYAGI"	"KESENNUMA"	38.9	141.57	242.7993819286658									1.7		1														
	1856	8	23	4	30		4	1	864	8			"n"	"JAPAN"	"AOMORI"	"MINATO"	40.5217	141.5097	168.69972376396052											1										1		2		
	1856	8	23	4	30		4	1	864	8			"n"	"JAPAN"	"IWATE"	"MIYAKO"	39.65	141.983	160.15889182915186									3.5		1										2	101	2		
	1856	8	23	4	30		4	1	864	8			"n"	"JAPAN"	"HOKKAIDO"	"DIZO"												1.5	600	1										1		2		
	1856	8	23	4	30		4	1	864	8			"n"	"JAPAN"	"IWATE"	"NODA"	40.117	141.833	147.9501728927219									6		1														
	1856	8	23	4	30		4	1	864	8			"n"	"JAPAN"	"IWATE"	"OFUNATO"	39.017	141.75	222.70343646119372									3		1														
	1856	8	23	4	30		4	1	864	8			"n"	"JAPAN"	"MIYAGI"	"OKACHI"	38.517	141.467	281.1255687705628									1.8		1														
	1856	8	23	4	30		4	1	864	8			"n"	"JAPAN"	"HOKKAIDO"	"OSATSUBE"	41.9	141.0167	259.9098845692566									3		1														
	1856	8	23	4	30		4	1	864	8			"n"	"JAPAN"	"IWATE"	"OTSUCHI"	39.35	141.917	186.05127298489566									3.5		1														
	1856	8	23	4	30		4	1	864	8			"n"	"JAPAN"	"IWATE"	"RYOISHI"	39.3	141.9	190.97729387234438									1.9		1														
	1856	8	23	4	30		4	1	864	8			"n"	"JAPAN"	"IWATE"	"RYORI"	39.03	141.87	214.8073786062292									3		1														
	1856	8	23	4	30		4	1	864	8			"n"	"JAPAN"	"HOKKAIDO"	"SHIRIKISHINAI"	41.75	141.08	246.09396520259082									1		1														
	1856	8	23	4	30		4	1	864	8			"n"	"JAPAN"	"MIYAGI"	"TANOURA"	38.7333	141.55	257.8869044270523									5		1														
	1856	8	23	4	30		4	1	864	8			"n"	"JAPAN"	"IWATE"	"TANOHAMA"	39.42	142	175.51205111564963									5		1														
	1856	8	23	4	30		4	1	864	8			"n"	"JAPAN"	"HOKKAIDO"	"KAMIISO"	41.816	140.639	281.08964710312273									1.2		1														
	1856	8	23	4	30		4	1	864	8			"n"	"JAPAN"	"HOKKAIDO"	"URAKAWA"	42.167	142.767	195.0384303805297											1														
	1856	8	23	4	30		4	1	864	8			"n"	"JAPAN"	"HOKKAIDO"	"USUJIRI"	41.933	140.95	266.54158156219296									1.8		1														
	1856	8	23	4	30		4	1	864	8			"n"	"JAPAN"	"IWATE"	"YAMADA"	39.467	141.95	175.16148140600052									2.5		1														
	1856	8	23	4	30		4	1	864	8			"n"	"JAPAN"	"IWATE"	"YOSHIHAMA"	39.15	141.833	206.95783700459518									3		1														
	1856	8	23	4	30		4	1	864	8			"n"	"JAPAN"	"HOKKAIDO"	"SARU"	44.4261	143.2231	436.71373415933294											1														
	1856	8	23	4	30		4	1	864	8			"n"	"JAPAN"	"HOKKAIDO"	"TODOHOKKE"	41.833	141.15	246.5824290070116											1														
	1856	8	23	4	30		4	1	864	8			"n"	"JAPAN"	"HOKKAIDO"	"CAPE ESAN"	41.81284541	141.18023	243.234274878674											1														
	1856	8	23	4	30		4	1	864	8			"n"	"JAPAN"	"HOKKAIDO"	"CAPE SHIOKUBI"	41.7167	140.95	253.23429820537748											1														
	1856	8	23	4	30		4	1	864	8			"n"	"JAPAN"	"HOKKAIDO"	"YAKUMO"	42.2539	140.2692	333.10859786264666											1														
	1856	8	23	4	30		4	1	864	8			"n"	"JAPAN"	"HOKKAIDO"	"YUE"	42.55	141.95	261.8563997947384											1														
	1856	9					2	9	5503				"m"	"JAPAN"	"TOKYO"	"TOKYO BAY"	35.6	139.7	0											1														
	1857	7	13	22			4	1	871	6.4			"n"	"JAPAN"	"SHIZUOKA"	"OKITSU"	35.06	138.53	35.68726675806906											1										1				
	1858	9					1	1	876				"n"	"JAPAN"	"OKINAWA"	"OKINAWA"	26.167	127.833	33.48740439522735											1														
	1861	10	20	17	30		4	1	915	7.4			"n"	"JAPAN"	"MIYAGI"	"NOBIRU"	38.367	141.167	74.21465725605144									3		1														
	1861	10	20	17	30		4	1	915	7.4			"n"	"JAPAN"	"IWATE"	"RYORI"	39.03	141.87	59.91085441941511									3.9		1														
	1861	10	20	17	30		4	1	915	7.4			"n"	"JAPAN"	"MIYAGI"	"MIYAGI COAST"														1										1				
	1861	10	20	17	30		4	1	915	7.4			"n"	"JAPAN"	"IWATE"	"IWATE COAST"														1										1				
	1863	9	20				3	1	930	6.4			"n"	"JAPAN"	"HOKKAIDO"	"TESHIO"	44.89	141.74	37.414262251796686											1														
	1865	3	1				1	0	936				"n"	"JAPAN"	"OKINAWA"	"OKINAWA"	26.167	127.833	33.48740439522735											1														
	1868	8	13	21	30		4	1	983	8.5			"n"	"JAPAN"	"HOKKAIDO"	"HAKODATE"	41.783	140.733	16065.15514110002	14	23		25					3		1	20													
	1868	8	13	21	30		4	1	983	8.5			"y"	"JAPAN"	"MIYAGI"	"MOTOYOSHI"	38.8	141.5	16168.778909807173											1														
	1868	8	13	21	30		4	1	983	8.5			"n"	"JAPAN"	"OKINAWA"	"NAHA, RYUKYU ISLANDS"	26.212222	127.679167	17930.935800931697	15	1		27					1		1														
	1868	8	13	21	30		4	1	983	8.5			"y"	"JAPAN"	"SHIZUOKA"	"SHIMODA"	34.667	138.95	16570.73659076905											1	35													
	1868	8	13	21	30		4	1	983	8.5			"n"	"JAPAN"	"KANAGAWA"	"YOKOHAMA"	35.46	139.65	16476.64118003977											1														
	1868	8	13	21	30		4	1	983	8.5			"n"	"JAPAN"	"IWATE"	"SANRIKU"	39.37	141.88	16110.868635463206											1														
	1872	3	14	8	20		4	1	1038	7.4			"n"	"JAPAN"	"TOYAMA"	"FUKUMITSU"	36.55	136.87	477.0585901367058									3		1														
	1872	3	14	8	20		4	1	1038	7.4			"n"	"JAPAN"	"SHIMANE"	"HAMADA"	34.89	132.07	6.493788359710237											1				1										
	1872	3	14	8	20		4	1	1038	7.4			"n"	"JAPAN"	"SHIMANE"	"TAKASHIMA ISLAND"	34.835	131.84	16.310232911067732									1		1														
	1872	3	14	8	20		4	1	1038	7.4			"n"	"JAPAN"	"SHIMANE"	"ISOTAKE"	35.194	132.439	51.65319127513086											1														
	1872	3	14	8	20		4	1	1038	7.4			"n"	"JAPAN"	"SHIMANE"	"YUZATO"	35.15	132.4	45.84529538678532											1														
	1872	3	14	8	20		4	1	1038	7.4			"n"	"JAPAN"	"SHIMANE"	"NAGAHAMA"	34.87	132.05	5.654085765234405											1														
	1872	3	14	8	20		4	1	1038	7.4			"n"	"JAPAN"	"SHIMANE"	"MINO DISTRICT"	34.7	131.85	26.09013575315889											1														
	1872	3	14	8	20		4	1	1038	7.4			"n"	"JAPAN"	"SHIMANE"	"KUROMATSU"	35.056	132.313	33.41232356965533											1														
	1872	3	14	8	20		4	1	1038	7.4			"n"	"JAPAN"	"SHIMANE"	"SUFU"	34.85	132.02	5.840530866411017									1		1														
	1872	3	14	8	20		4	1	1038	7.4			"n"	"JAPAN"	"SHIMANE"	"KAMATE"	34.75	131.87	20.453489163289117									0.75		1														
	1872	3	14	8	20		4	1	1038	7.4			"n"	"JAPAN"	"SHIMANE"	"KOKUBU"	34.94	132.11	10.987440522621318											1														
	1872	3	14	8	20		4	1	1038	7.4			"n"	"JAPAN"	"SHIMANE"	"NIMAN"														1														
	1876	10	26				2	2	5536				"n"	"JAPAN"	"OKINAWA"	"OKINAWA"	26.217	127.667												1														
	1877	5	10	0	59		4	1	1075	8.3			"n"	"JAPAN"	"CHIBA"	"BOSO PENINSULA"	34.9	139.85	16713.459139136434											1				3										
	1877	5	10	0	59		4	1	1075	8.3			"n"	"JAPAN"	"HOKKAIDO"	"HAKODATE"	41.783	140.733	16333.798684052521	11	2		25					2.4		1	20									1				
	1877	5	10	0	59		4	1	1075	8.3			"n"	"JAPAN"	"IWATE"	"KAMAISHI"	39.267	141.883	16368.507244518187	11	0		23					3		1														
	1877	5	10	0	59		4	1	1075	8.3			"n"	"JAPAN"	"CHIBA"	"KUJUKURI, BOSO PENINSULA"	35.53	140.42	16641.4187344684											1				3										
	1877	5	10	0	59		4	1	1075	8.3			"n"	"JAPAN"	"NAGASAKI"	"NAGASAKI"	32.733	129.867	17657.46440202033									3		1														
	1877	5	10	0	59		4	1	1075	8.3			"n"	"JAPAN"	"TOKYO"	"TOKYO BAY"	35.65	139.8	16689.72553614371									0.7		1														
	1877	5	10	0	59		4	1	1075	8.3			"n"	"JAPAN"		"KAZUSA"	32.617	130.167	17638.21688611315											1				3										
	1877	5	10	0	59		4	1	1075	8.3			"n"	"JAPAN"	"KOCHI"	"TOSA-SHIMIZU"	32.783	132.967	17392.158963679885											1														
	1877	5	10	0	59		4	1	1075	8.3			"n"	"JAPAN"		"SHIKOKU ISLAND"	33.75	133.5	17303.578018800043									2		1														
	1881	10	25				2	1	1125	7			"n"	"JAPAN"	"HOKKAIDO"	"NEMURO"	43.35	145.583	139.37395073761724											1														
	1881	10	25				2	1	1125	7			"n"	"JAPAN"	"HOKKAIDO"	"KUSHIRO"	42.967	144.367	241.47847119211173											1														
	1884	11	15				-1	9	1150				"m"	"JAPAN"	"OKAYAMA"	"TAMASHIMA"	34.533	133.667												1														
	1884	11	15				-1	9	1150				"m"	"JAPAN"	"OKAYAMA"	"KASAOKA"	34.5	133.51												1														
	1892	12	9				4	1	1200	6.5			"n"	"JAPAN"	"TOYAMA"	"TOYAMA"	36.9	137	20.98799639209782											1														
	1892	12	9				4	1	1200	6.5			"n"	"JAPAN"	"ISHIKAWA"	"ISHIKAWA"	36.7	136.7	34.46633943335092											1														
	1893	6	4	2	27	0	4	1	1203	7			"y"	"JAPAN"	"HOKKAIDO"	"HOKKAIDO, WEST COAST"	44	143	371.22827993565943									2.5		1														
	1893	6	13				4	1	1204	6.9			"n"	"JAPAN"	"HOKKAIDO"	"NEMUROKO"	43.35	145.583	94.67038452245367											1														
	1894	3	22	10	23		4	1	1208	7.9			"n"	"JAPAN"	"HOKKAIDO"	"AKKESHI"	43.033	144.85	111.19910467512695									2		1														
	1894	3	22	10	23		4	1	1208	7.9			"n"	"JAPAN"	"HOKKAIDO"	"HAKODATE"	41.783	140.733	442.553074695236									0.5		1														
	1894	3	22	10	23		4	1	1208	7.9			"n"	"JAPAN"	"HOKKAIDO"	"HANASAKI"	43.283	145.567	93.8995404230141					26				1.5		1														
	1894	3	22	10	23		4	1	1208	7.9			"n"	"JAPAN"	"IWATE"	"KAMAISHI"	39.267	141.883	499.1804863551699									1.4		1														
	1894	3	22	10	23		4	1	1208	7.9			"n"	"JAPAN"	"MIYAGI"	"KESENNUMA"	38.9	141.57	547.5568361514441									1		1														
	1894	3	22	10	23		4	1	1208	7.9			"n"	"JAPAN"	"HOKKAIDO"	"KUSHIRO"	42.967	144.367	143.43720561961152									1		1														
	1894	3	22	10	23		4	1	1208	7.9			"n"	"JAPAN"	"IWATE"	"MIYAKO"	39.65	141.983	462.65031330380947					42				4		1														
	1894	3	22	10	23		4	1	1208	7.9			"n"	"JAPAN"	"IWATE"	"OFUNATO"	39.017	141.75	527.4858220950855									1.5		1														
	1894	3	22	10	23		4	1	1208	7.9			"n"	"JAPAN"	"IWATE"	"OTSUCHI"	39.35	141.917	490.43692635781787									1		1														
	1894	3	22	10	23		4	1	1208	7.9			"n"	"JAPAN"		"RUYABETSU"												3		1														
	1894	3	22	10	23		4	1	1208	7.9			"n"	"JAPAN"	"IWATE"	"TARO"	39.76	141.97	454.99007768340795									1.4		1														
	1894	3	22	10	23		4	1	1208	7.9			"n"	"JAPAN"	"HOKKAIDO"	"TOMARI"	41.08	141.42	412.0063163712909									1		1														
	1894	3	22	10	23		4	1	1208	7.9			"n"	"JAPAN"	"IWATE"	"YAMADA"	39.467	141.95	479.0707471714799									1		1														
	1894	3	22	10	23		4	1	1208	7.9			"n"	"JAPAN"	"HOKKAIDO"	"NEMURO"	43.35	145.583	100.37667956864847									1.5		1														
	1894	3	22	10	23		4	1	1208	7.9			"y"	"JAPAN"	"HOKKAIDO"	"KIRITAPPU"	43.083	145.133	96.05197732953529											1										1				
	1894	3	22	10	23		4	1	1208	7.9			"n"	"JAPAN"	"MIYAGI"	"AYUKAWA"	38.3	141.5	602.6683909256208				1	4				0.3		2	20													
	1894	3	22	10	23		4	1	1208	7.9			"n"	"JAPAN"	"AOMORI"	"HACHINOHE"	40.526	141.533	432.4876626709263					53						1														
	1895	5	25				1	1	1224				"n"	"JAPAN"	"NAGASAKI"	"NAGASAKI"	32.74	129.87	31.29632286691711											7														
	1896	1	9				4	1	1231	7.6			"n"	"JAPAN"	"KANTO"	"KANTO REGION"	35.6	139.76	149.8535683335742											1														
	1896	1	9				4	1	1231	7.6			"n"	"JAPAN"	"TOHOKU"	"TOHOKU REGION"	40.3	141.7	426.22010075376164											1														
	1896	1	9				4	1	1231	7.6			"n"	"JAPAN"	"MIYAGI"	"AYUKAWA"	38.3	141.5	204.61893158814584				1	3				0.25		1	8													
	1896	1	9				4	1	1231	7.6			"n"	"JAPAN"	"FUKUSHIMA"	"ONAHAMA"	36.95	140.9	50.73032428059315					28						1														
